Community Area Name,Community Area Number,Property Type,Property Name,Address,Zip Code,Phone Number,Management Company,Units,X Coordinate,Y Coordinate,Latitude,Longitude,Location
Albany Park,14,Senior,Mayfair Commons,4444 W. Lawrence Ave.,60630,773-205-7862,"Metroplex, Inc.",97,1145674.754,1931569.979,41.96822423,-87.73974749,"(41.9682242321, -87.7397474866)"
Albany Park,14,Senior,Senior Suites of Ravenswood Manor,2800 W. Montrose Ave.,60618,773-509-9333,Senior Lifestyle Corp.,80,1156898.514,1929148.461,41.96135865,-87.69854417,"(41.9613586525, -87.6985441744)"
Albany Park,14,Senior,Darul Amaan Senior Living,4814-58 N. Kedzie Ave.,60625,773-463-3004,East Lake Management & Development Corp.,56,1154133.125,1931889.16,41.96893506,-87.70863783,"(41.9689350644, -87.7086378257)"
Ashburn ,70,Senior,Wrightwood Senior Apartments,2815 W. 79th St.,60652,773-471-7777,Ludwig and Company,85,1158906.934,1852040.954,41.74972646,-87.69327334,"(41.7497264566, -87.6932733372)"
Auburn Gresham,71,Multifamily,Stone Terrace,8440 S. Parnell Ave.,60620,773-651-9234,East Lake Management & Development Corp.,56,1174067.016,1848682.074,41.74018636,-87.63781991,"(41.740186358, -87.6378199128)"
Auburn Gresham,71,Senior HUD 202,St. Sabina Elder Village Apartments,1222 W. 79th St.,60620,773-994-7850,Catholic Charities Housing Devp.,80,1169422.93,1852437.468,41.75059341,-87.65472675,"(41.7505934139, -87.6547267546)"
Auburn Gresham,71,Senior,Senior Suites of Auburn-Gresham,1050 W. 79th St.,60620,773-723-0333,Senior Lifestyle Corp.,85,1170460.901,1852465.795,41.75064862,-87.65092232,"(41.7506486193, -87.6509223206)"
Auburn Gresham,71,Senior HUD 202,Naomi & Sylvester Smith Senior Living Ctr.,8019-55 S. Halsted St.,60620,773-651-6400,"HSR Property Services, LLC",59,1172404.466,1851597.134,41.74822238,-87.6438257,"(41.7482223777, -87.6438256988)"
Auburn Gresham,71,Senior,Auburn Commons,1626 W. 87th St.,60620,773-238-0850,"Urban Property Advisors, LLC",72,1166895.24,1847057.796,41.73588515,-87.66414272,"(41.7358851523, -87.6641427166)"
Austin,25,Multifamily,Pine Central,557 N. Pine Ave.,60644,773-568-1020,NHS Redevelopment Corp.,78,1139471.896,1903210.835,41.8905194,-87.76324864,"(41.8905193977, -87.7632486365)"
Austin,25,Senior,Senior Suites of Austin,335 N. Menard Ave.,60644,773-378-0333,Senior Lifestyle Corp.,84,1137686.377,1901819.131,41.88673275,-87.76983958,"(41.8867327472, -87.7698395847)"
Austin,22,Multifamily,Madison Renaissance Apts.,1816 N. St. Louis Ave.,60647,773-227-1366,Related Management Co. LP,30,1152932.106,1911940.497,41.91421838,-87.71358429,"(41.9142183771, -87.7135842866)"
Austin,25,Supportive Housing,Menard Apartments,334 N. Menard Ave.,60644,773-572-5272,The Thresholds,57,1137606.415,1901816.665,41.88672742,-87.77013329,"(41.8867274207, -87.7701332901)"
Austin,25,Multifamily,Rebecca Walker Complex,126 S. Central Ave.,60644,773-261-1550,Affordable Property Management Specialist,40,1139038.208,1898825.974,41.87849467,-87.76494803,"(41.8784946733, -87.7649480305)"
Austin,25,Multifamily,Rebecca Walker Complex,223-9 S. Central Ave.,60644,773-261-1550,Affordable Property Management Specialist,12,1139130.076,1898499.873,41.87759814,-87.76461864,"(41.8775981392, -87.7646186402)"
Austin,25,Multifamily,Rebecca Walker Complex,5565-71 W. Quincy Ave.,60644,773-261-1550,Affordable Property Management Specialist,12,1139234.68,1898405.584,41.8773375,-87.76423685,"(41.8773374951, -87.7642368505)"
Austin,25,Multifamily,Congress Commons LLC,504 S. Laramie Ave.,60644,773-287-1592,Congress Commons LLC,161,1141766.818,1897120.686,41.87376512,-87.7549712,"(41.873765121, -87.7549712034)"
Austin,25,Senior HUD 202,Enola A. Dew Senior Apartments,4623 W. Gladys Ave.,60644,773-287-2972,"Prairie Management & Development, Inc.",60,1145481.111,1897910.062,41.87586178,-87.74131396,"(41.8758617765, -87.7413139552)"
Austin,25,Senior HUD 202,Elois McCoy Village Apartments,4650 W. Van Buren St.,60644,773-626-5320,"Prairie Management & Development, Inc.",60,1145250.308,1897655.195,41.87516676,-87.74216784,"(41.875166755, -87.7421678378)"
Austin,25,Supportive/Teenage Moms,Home for New Moms,5327 W. Chicago Ave.,60651,773-610-7696,"New Moms, Inc.",40,1140544.652,1904774.781,41.89479143,-87.75927048,"(41.8947914314, -87.7592704828)"
Avalon Park,45,Senior,Montclare Senior Residences of Avalon Park,1200 E. 78th St.,60619,773-933-9000,Montclare Senior Residences,102,1185587.742,1853564.459,41.75332086,-87.5954564,"(41.7533208609, -87.5954564009)"
Belmont Cragin,19,ARO,TBD,2917-39 N. Central Ave.,60634,708-867-3799,Zitella Development ,3,1138569.742,1918921.633,41.93364805,-87.7661803,"(41.9336480472, -87.7661803002)"
Belmont Cragin,19,Senior,Senior Suites of Belmont-Cragin,6045 W. Grand Ave.,60639,773-237-1333,Senior Lifestyle Corp.,86,1135526.174,1914216.383,41.92079101,-87.77747755,"(41.9207910105, -87.7774775508)"
Belmont Cragin,19,Senior,Senior Suites of Kelvyn Park,2715 N. Cicero Ave.,60639,773-252-0333,Senior Lifestyle Corp.,85,1143963.795,1917674.647,41.93012657,-87.74638854,"(41.9301265688, -87.7463885389)"
Belmont Cragin,19,Senior,Crystal Courts/Anixter Center,5038 W. Armitage Ave.,60639,773-385-9080,Lester and Rosalie Anixter Center,17,1142340.781,1912865.659,41.91696054,-87.75247249,"(41.916960542, -87.7524724894)"
Bridgeport,60,Senior,Senior Suites of Bridgeport,2825 S. Halsted St.,60608,312-326-0333,Senior Lifestyle Corp.,85,1171468.409,1886029.528,41.84272915,-87.64624727,"(41.8427291512, -87.6462472701)"
Chatham,44,Supportive Housing,Karibuni Place,8200 S. Ellis Ave.,60619,773-873-0708,Heartland Housing,72,1184284.153,1850796.894,41.74575696,-87.60031991,"(41.7457569581, -87.6003199107)"
Chatham,44,Senior,Senior Suites of Chatham,8300 S. Cottage Grove Ave.,60619,773-488-1333,Senior Lifestyle Corp.,90,1182964.716,1850099.444,41.74387382,-87.60517616,"(41.743873821, -87.6051761606)"
Chicago Lawn,66,Senior,Lawn Terrace Independent  Living Apartments,3214 W. 63rd Place,60629,773-925-0815,Greater Southwest Dev. Corp.,102,1155938.092,1862375.031,41.77814486,-87.70387541,"(41.7781448626, -87.7038754099)"
Chicago Lawn,66,Senior,Senior Suites of Marquette Village,7430 S. Rockwell St.,60629,773-432-8420,Senior Lifestyle Corp.,93,1160293.922,1855122.446,41.75815411,-87.68810611,"(41.7581541131, -87.6881061075)"
Chicago Lawn,66,Senior,Churchview Manor Independent Living,2626 W. 63rd St.,60629,773-925-0730,Greater Southwest Dev. Corp.,60,1159807.028,1862817.69,41.77928099,-87.68967949,"(41.7792809902, -87.6896794864)"
Chicago Lawn,66,Senior,Churchview Supportive Assisted Living,2626 W. 63rd St.,60629,773-471-4444,Greater Southwest Dev. Corp.,86,1159807.028,1862817.69,41.77928099,-87.68967949,"(41.7792809902, -87.6896794864)"
Douglas,35,Multifamily,Park Boulevard IA,3845 S. State St.,60609,773-548-8792,"Urban Property Advisors, LLC",80,1176967.12,1879322.168,41.82420114,-87.62627123,"(41.8242011421, -87.6262712265)"
Douglas,35,Multifamily,Park Boulevard IIA,17 W. 36th St.,60609,773-548-8792,"Urban Property Advisors, LLC",36,1176708.767,1881091.479,41.82906211,-87.62716568,"(41.8290621083, -87.6271656778)"
Douglas,35,Multifamily,Park Boulevard IIA,3604 S. State St.,60609,773-548-8792,"Urban Property Advisors, LLC",6,1176845.915,1881076.382,41.82901759,-87.62666295,"(41.8290175865, -87.6266629487)"
Douglas,35,Multifamily,Park Boulevard IIA,3612 S. State St.,60609,773-548-8792,"Urban Property Advisors, LLC",6,1176848.892,1880973.883,41.82873626,-87.62665512,"(41.8287362552, -87.6266551179)"
Douglas,35,Multifamily,Park Boulevard IIA,3640 S. State St.,60609,773-548-8792,"Urban Property Advisors, LLC",80,1176856.611,1880678.422,41.82792531,-87.62663572,"(41.8279253109, -87.6266357171)"
Douglas,35,Multifamily,Park Boulevard IB,3506 S. State St.,60609,773-548-8792,"Urban Property Advisors, LLC",54,1176805.951,1881719.108,41.83078218,-87.62679018,"(41.8307821806, -87.6267901762)"
Douglas,35,Multifamily,Park Boulevard IIB,3633 S. State St.,60609,773-548-8792,"Urban Property Advisors, LLC",12,1176929.888,1880943.186,41.82865019,-87.62635888,"(41.8286501893, -87.6263588794)"
Douglas ,35,Multifamily,Park Boulevard IIB,10 W. 37th St.,60609,773-548-8792,"Urban Property Advisors, LLC",12,1176772.49,1880503.014,41.82744587,-87.62694964,"(41.8274458746, -87.6269496359)"
Douglas ,35,Mutifamily,Park Boulevard IIB,15 W. 37th St.,60609,773-548-8792,"Urban Property Advisors, LLC",12,1176697.68,1880416.049,41.82720892,-87.62722672,"(41.8272089226, -87.6272267219)"
Douglas,35,Multifamily,Park Boulevard IIB,3700 S. Dearborn St.,60609,773-548-8792,"Urban Property Advisors, LLC",72,1176529.6,1880409.309,41.82719422,-87.62784358,"(41.8271942191, -87.6278435793)"
Douglas,35,Multifamily,South Park Plaza,2600 S. King Dr.,60616,312-674-9210,Woodlawn Comm. Dev. Corp.,134,1179206.472,1887158.196,41.84565291,-87.61781639,"(41.8456529118, -87.617816391)"
Douglas,35,Senior,Pioneer Gardens Supportive Living,3800 S. King Dr.,60653,773-420-4100,Pioneer Gardens Senior Housing,120,1179441.358,1879836.399,41.825556,-87.61717842,"(41.8255559976, -87.6171784181)"
Douglas,35,Senior,Pioneer Village Apartments,340 E. 38th St.,60653,773-536-0463,Pioneer Affordable Housing Preservation,152,1179348.36,1879907.496,41.82575322,-87.61751743,"(41.8257532207, -87.6175174282)"
Dunning,17,Senior,Autumn Green at Wright Campus,4239 N. Oak Park Ave.,60634,773-202-3388,Senior Lifestyle Corp.,129,1129981.018,1927628.484,41.95769221,-87.79754403,"(41.9576922115, -87.7975440334)"
East Garfield Park,27,Multifamily,Ike Sims Village,3333 W. Maypole Ave.,60624,773-638-1818,Village Green Management Co.,200,1153978.229,1900741.035,41.88346519,-87.71003991,"(41.8834651917, -87.7100399091)"
East Garfield Park,27,Multifamily/Artists,Switching Station Lofts ,15 S. Homan Ave.,60624,312-859-0577,Holsten Management Corp.,24,1153767.678,1899627.529,41.88041381,-87.71084273,"(41.8804138115, -87.7108427298)"
East Garfield Park,27,Senior,Heritage Woods of Chicago,2800 W. Fulton St.,60612,773-722-2900,BMA Management Ltd.,113,1157640.848,1901927.155,41.88664623,-87.69655814,"(41.8866462303, -87.696558136)"
East Garfield Park,27,Multifamily,Homan Square Apartments Phase I,750 S. Homan Ave.,60624,773-722-7320,Realty & Mortgage Co.,50,1153790.485,1896268.991,41.87119717,-87.71084842,"(41.8711971734, -87.7108484249)"
East Garfield Park,27,Multifamily,Homan Square Apartments Phase IV ,908 S. Central Park Ave.,60624,773-722-7320,Realty & Mortgage Co.,108,1152480.61,1895702.738,41.86966928,-87.71567245,"(41.8696692769, -87.7156724506)"
East Garfield Park,27,Multifamily,Homan Square Apartments Phase V,3607 W. Polk St.,60624,773-722-7320,Realty & Mortgage Co.,42,1152413.693,1896087.181,41.87072555,-87.71590797,"(41.8707255523, -87.7159079717)"
East Garfield Park,27,Multifamily,Homan Square Apartments Phase VI ,3609 W. Arthington St.,60624,773-722-7320,Realty & Mortgage Co.,52,1152417.178,1895758.869,41.86982456,-87.71590385,"(41.8698245594, -87.7159038458)"
East Garfield Park,27,Supportive Housing,Deborah's Place III,2822 W. Jackson Blvd.,60612,773-638-6490,Deborah's Place ,90,1157527.975,1898606.336,41.87753589,-87.69706305,"(41.8775358858, -87.6970630483)"
East Garfield Park,27,Supportive Housing,East Park Apartments,3300 W. Maypole Ave.,60624,773-826-3300,The Habitat Co.,152,1154287.339,1900828.13,41.88369802,-87.7089025,"(41.8836980221, -87.7089025002)"
East Garfield Park,27,Multifamily,Liberty Square Apartments,705-23 S. Independence Ave.,60624,773-538-3800,Bonheur Realty Services Corp.,66,1151407.461,1896705.24,41.87244138,-87.71958599,"(41.8724413776, -87.7195859945)"
Edgewater,77,Multifamily,Winthrop Apartments,6214 N. Winthrop Ave.,60660,773-477-7070 ext. 16,Hunter Properties,108,1167688.709,1941496.368,41.99501546,-87.65851604,"(41.9950154576, -87.6585160357)"
Edgewater,77,Senior,Hollywood House Apartments,5700 N. Sheridan Road,60660,773-728-2600,Heartland Housing,93,1168565.916,1938087.01,41.9856411,-87.65538854,"(41.9856410954, -87.6553885441)"
Edgewater,77,Senior,Pomeroy Apartments,5650 N. Kenmore Ave.,60660,773-275-7820,Habitat Company,198,1168181.124,1937918.4,41.98518678,-87.65680868,"(41.9851867755, -87.656808677)"
Edgewater,77,Multifamily,Bell Shore Apartments,1062 W. Bryn Mawr Ave.,60660,773-334-5407,Holsten Management Corp.,105,1167941.813,1937401.257,41.9837729,-87.65770384,"(41.9837729037, -87.6577038394)"
Englewood,68,Senior,Yale Building,6565 S. Yale Ave.,60621,773-224-7669,Yale Building LLP,140,1175681.092,1861260.691,41.77466762,-87.6315302,"(41.7746676247, -87.6315301982)"
Englewood,68,Multifamily,Antioch Homes II,301 W. Marquette Road,60621,773-994-4546,"Universal Management Service, Inc.",69,1175444.813,1860492.084,41.77256377,-87.63241932,"(41.7725637689, -87.6324193182)"
Englewood,68,People with Disabilities,Victoria Jennings Residences,624 W. 61st St.,60621,773-994-3690,"HSR Property Services, LLC",57,1173046.575,1864479.47,41.78355891,-87.6410929,"(41.7835589092, -87.6410928975)"
Englewood,68,Supportive Housing,Rowan Trees Apartments,500 W. Englewood Ave.,60621,773-572-5272,The Thresholds,167,1174002.16,1863521.643,41.78090936,-87.63761782,"(41.7809093636, -87.637617817)"
Englewood,68,Supportive Housing,Englewood Apartments,901 W. 63rd Street,60621,773-994-3199,Mercy Housing,45,1171373.661,1863023.368,41.77959999,-87.64726896,"(41.7795999913, -87.6472689598)"
Englewood,68,Supportive Housing,Branch of Hope Apartments,5628-30 S. Halsted Ave.,60621,773-488-7205,Evergreen Real Estate LLC,99,1171893.839,1867410.662,41.79162782,-87.64523321,"(41.7916278176, -87.6452332087)"
Englewood,68,Supportive/Veterans,Hope Manor II Apartments,60th/Halsted,60621,773-874-3610,Voluinteers of America Illinois,73,,,,,
Fuller Park,37,Senior,Fellowship Manor,5041 S. Princeton Ave.,60609,773-924-5980,"East Lake Management Group, Inc.",100,1175183.479,1871367.582,41.80241312,-87.63305258,"(41.8024131184, -87.6330525826)"
Gage Park,63,Senior,Senior Suites of Gage Park,3244 W. 59th St.,60629,773-434-4333,Senior Lifestyle Corp.,59,1155572.425,1865354.407,41.78632805,-87.70513618,"(41.786328045, -87.705136175)"
Garfield Ridge,56,Senior,Senior Suites of Garfield Ridge,5839 S. Harlem Ave.,60638,773-229-1533,Senior Lifestyle Corp.,87,1129403.745,1864822.912,41.78535412,-87.801098,"(41.7853541249, -87.8010979955)"
Grand Boulevard,38,Multifamily,Indiana Manor Town Homes,44th/Indiana,60653,773-268-5326,Indiana Manor Townhomes,87,,,,,
Grand Boulevard,38,Multifamily,Hearts United Phase I - The Langston,41st St. - 44th St. ,60653,773-538-3800,Bonheur Realty Services Corp.,65,,,,,
Grand Boulevard,38,Multifamily,Hearts United Phase II - The Quincy,E. Evans - W. Vincennes,60653,773-538-3800,Bonheur Realty Services Corp.,116,,,,,
Grand Boulevard,38,Multifamily,Progressive Square,4752 S. Wabash Ave.,60614,773-975-7234,CMHDC/Progressive NFP/Kass Management,107,1177483.246,1873312.722,41.80769903,-87.62455959,"(41.8076990345, -87.6245595889)"
Grand Boulevard,38,Senior,Park Boulevard Tower/Grand Renaissance Apts.,4257 S. King Dr.,60653,773-268-4642,"East Lake Management Group, Inc.",24,1179612.436,1876628.605,41.81674964,-87.61664895,"(41.8167496439, -87.6166489475)"
Grand Boulevard,38,Multifamily,Geneva Gables,4420-24 S. Michigan Ave.,60653,773-924-7700,Tri-Mart Management Co. ,65,1177858.686,1875634.197,41.81406086,-87.62311222,"(41.8140608614, -87.6231122243)"
Grand Boulevard,38,Multifamily,Paul G. Stewart Phase V,400 E. 41st St.,60653,773-924-2100,Paul G. Stewart Assoc.,20,1179638.248,1877940.683,41.8203495,-87.61651411,"(41.8203495003, -87.6165141095)"
Grand Boulevard,38,Supportive Housing,Washington Park SRO,5000 S. Indiana Ave.,60615,773-924-1107,"East Lake Management Group, Inc.",96,1178406.437,1871882.896,41.80375452,-87.62121706,"(41.8037545212, -87.6212170565)"
Grand Boulevard,38,Senior HUD 202,Margaret Ford Manor Independent Living,4500 S. Wabash Ave.,60653,773-924-9171,"HSR Property Services, LLC",63,1177427.156,1875236.623,41.81297966,-87.62470713,"(41.8129796596, -87.6247071273)"
Grand Boulevard,38,Senior,Cornerstone/Evans Langley,4907 S. St. Lawrence Ave.,60615,773-548-9211,"Metroplex, Inc.",60,1181127.01,1872564.798,41.80556343,-87.61121843,"(41.805563433, -87.6112184342)"
Grand Boulevard,38,Multifamily,Legends South - Hansberry Square,4034 S. State St.,60609,773-548-8800,Interstate Realty Management Co.,45,1176907.636,1878122.623,41.82091083,-87.62652565,"(41.8209108342, -87.6265256539)"
Grand Boulevard,38,Multifamily,Legends South - Mahalia Place,116 E. 43rd St.,60653,773-285-9500,Interstate Realty Management Co.,181,1178081.875,1876584.156,41.81666257,-87.62226472,"(41.816662565, -87.6222647175)"
Grand Boulevard,38,Multifamily,Legends South - Coleman Place,223 E. 41st St.,60653,773-268-0202,Interstate Realty Management Co.,110,1178573.52,1877831.629,41.82007455,-87.6204233,"(41.820074554, -87.6204232972)"
Grand Boulevard,38,Multifamily,Legends South - Savoy Square,4448 S. State St.,60609,773-624-7676,Interstate Realty Management Co.,118,1176982.246,1875311.407,41.81319493,-87.6263368,"(41.8131949278, -87.6263367998)"
Grand Boulevard,38,Multifamily,Bronzeville Family Apartments,400 E. 41st St.,60653,773-924-2100,Peoples Co-Op Management Service,60,1179638.248,1877940.683,41.8203495,-87.61651411,"(41.8203495003, -87.6165141095)"
Grand Boulevard,38,Artist Live/Work Space,Bronzeville Artists Lofts,436 E. 47th St.,60653,773-324-1745,Revere Properties,16,1180131.926,1873998.52,41.80952057,-87.61482402,"(41.8095205688, -87.614824016)"
Grand Boulevard,38,Senior,Bronzeville Senior Apartments,460 E. 41st St.,60653,773-924-2100,Peoples Co-Op Management Service,97,1180219.199,1877957.214,41.82038154,-87.61438244,"(41.8203815435, -87.6143824354)"
Greater Grand Crossing,69,Multifamily,Englewood Gardens,6956 S. Vincennes Ave.,60621,773-994-4830,"East Lake Management Group, Inc.",24,1176891.268,1858664.434,41.76751603,-87.62717205,"(41.7675160252, -87.6271720535)"
Greater Grand Crossing,69,Artist Housing,Dorchester Art + Housing Collaborative,1450 E. 70th St.,60619,773-324-2270,Leasing & Management Co. Inc.,32,1187273.42,1858913.338,41.76795883,-87.58910953,"(41.7679588345, -87.5891095264)"
Hegewisch,55,Senior,Senior Suites of Hegewisch,13550 S. Avenue O,60633,773-646-1333 ext. 1,Senior Lifestyle Corp.,116,1201038.059,1815487.733,41.64845741,-87.54012317,"(41.6484574114, -87.540123166)"
Humboldt Park,23,Supportive Housing,Sanctuary Place,642 N. Kedzie Ave.,60612,773-265-0983,Interfaith Housing Corp.,84,1154880.603,1904286.639,41.89317664,-87.70663122,"(41.8931766425, -87.7066312185)"
Humboldt Park,23,Supportive Housing,Humboldt Park Residences ,1152 N. Christiana Ave.,60647,773-276-5338 ext. 225,LUCHA,69,1153731.441,1907707.148,41.9025858,-87.71076053,"(41.9025857989, -87.7107605283)"
Humboldt Park,23,Multifamily,Bloomingdale Apartments,1745 N. Keystone Ave.,60639,773-276-2965,Village Green Management Co.,48,1149146.636,1911465.939,41.91299036,-87.72750391,"(41.9129903623, -87.7275039055)"
Humboldt Park,23,Multifamily,Spaulding Apartments,1750 N. Spaulding Ave.,60647,773-381-7400,G&A Management,111,1153823.719,1911621.628,41.91332565,-87.71031714,"(41.9133256466, -87.7103171384)"
Humboldt Park,23,Supportive/Males 18-24yrs.,Solid Ground Supportive Housing Program ,3507 W. North Ave.,60647,773-276-4900,"La Casa Norte, Inc.",35,1152641.115,1910367.063,41.9099065,-87.71469504,"(41.9099064976, -87.7146950394)"
Humboldt Park,23,Multifamily,Madres Unidas scattered,3541 W. North Ave.,60647,773-276-5338 ext. 225,LUCHA,80,1152271.525,1910359.241,41.90989234,-87.71605298,"(41.9098923382, -87.7160529794)"
Humboldt Park,23,Senior,LUCHA Affordable Units,3541 W. North Ave.,60647,312-276-5338,LUCHA,69,1152271.525,1910359.241,41.90989234,-87.71605298,"(41.9098923382, -87.7160529794)"
Humboldt Park,23,Multifamily,La Estancia,3220 W. Division St.,60651,773-227-6332,Bickerdike Apartments,18,1154584.663,1907840.061,41.90293349,-87.70762292,"(41.9029334898, -87.7076229238)"
Humboldt Park,23,Multifamily,La Estancia,3248 W. Division St.,60651,773-227-6332,Bickerdike Apartments,9,1154314.32,1907834.526,41.90292371,-87.7086161,"(41.902923708, -87.7086160992)"
Humboldt Park,23,Multifamily,Rosa Parks Apartments,3215 W. Huron St.,60624,773-227-6332,Bickerdike Apartments,6,1154724.086,1904442.811,41.89360833,-87.70720187,"(41.8936083276, -87.7072018666)"
Humboldt Park,23,Multifamily,Rosa Parks Apartments,649 N. Sawyer Ave.,60624,773-227-6332,Bickerdike Apartments,6,1154625.793,1904362.102,41.89338882,-87.70756503,"(41.8933888222, -87.707565028)"
Humboldt Park,23,Multifamily,Rosa Parks Apartments,601 N. Drake Ave,60624,773-227-6332,Bickerdike Apartments,6,1152648.978,1903805.805,41.89190162,-87.71483993,"(41.8919016207, -87.714839929)"
Humboldt Park,23,Multifamily,Rosa Parks Apartments,521 N. St. Louis Ave.,60624,773-227-6332,Bickerdike Apartments,6,1152991.429,1903446.155,41.89090793,-87.71359179,"(41.8909079269, -87.7135917923)"
Humboldt Park,23,Multifamily,Rosa Parks Apartments,526 N. St. Louis Ave.,60624,773-227-6332,Bickerdike Apartments,12,1152910.964,1903460.212,41.8909481,-87.71388693,"(41.8909480951, -87.7138869273)"
Humboldt Park,23,Multifamily,Rosa Parks Apartments,532 N. Trumbull Ave.,60624,773-227-6332,Bickerdike Apartments,15,1153240.184,1903567.266,41.89123533,-87.71267502,"(41.8912353311, -87.7126750163)"
Humboldt Park,23,Multifamily,Rosa Parks Apartments,541 N. Homan Ave.,60624,773-227-6332,Bickerdike Apartments,27,1153649.603,1903659.52,41.89148035,-87.71116895,"(41.891480351, -87.7111689514)"
Humboldt Park,23,Multifamily,Rosa Parks Apartments,3341 W. Ohio St.,60624,773-227-6332,Bickerdike Apartments,16,1153814.924,1903755.65,41.89174085,-87.71055924,"(41.8917408493, -87.7105592395)"
Humboldt Park,23,Supportive/Veterans,Hope Manor Apartments,3053 W. Franklin Blvd.,60612,773-475-6703,Volunteers of America Illinois,50,1155690.801,1903132.153,41.88999235,-87.70368677,"(41.8899923467, -87.7036867659)"
Hyde Park,41,Multifamily,Hyde Park Apartments,5330 S. Harper Ave.,60615,773-955-2610,"DRE, Inc.",36,1187148.234,1870068.251,41.79857178,-87.58921454,"(41.7985717841, -87.5892145402)"
Jefferson Park,11,Senior,Senior Suites of Jefferson Park,5400 N. Northwest Hwy.,60630,773-775-7333,Senior Lifestyle Corp.,73,1136226.971,1935211.185,41.97839039,-87.77439957,"(41.9783903918, -87.7743995653)"
Kenwood,39,Multifamily,Jazz on the Boulevard (scattered sites) .,4657 S. Drexel Blvd,60653,312-660-1300,Heartland Housing,81,1183149.455,1874094.41,41.80971394,-87.60375337,"(41.8097139386, -87.6037533683)"
Kenwood,39,Multifamily,Drexel Preservation,837 E. 47th St.,60653,773-624-4901,MLG Management,39,1182801.325,1873991.948,41.80944088,-87.60503342,"(41.8094408765, -87.6050334227)"
Lakeview ,6,Senior,Renaissance St. Luke Greenview Place,1501 W. Melrose St.,60657,773-525-1501,"RRG Development, Inc.",155,1165704.848,1921625.294,41.94053116,-87.66638261,"(41.9405311557, -87.6663826053)"
Lakeview ,6,Supportive,Buffet Place,3208 N. Shefield Ave.,60657,312-572-5272,Thresholds,51,1169002.943,1921540.76,41.94022814,-87.65426349,"(41.9402281368, -87.6542634882)"
Lakeview ,6,Senior LGBTQ,Town Hall Apartments,3600 N. Halsted St.,60613,773-472-6463,Heartland Houing Inc.,79,1170240.93,1924164.847,41.94740174,-87.64963658,"(41.947401735, -87.6496365844)"
Logan Square,22,Multifamily,Rev. Daniel Alvarez Apts.,2451-57 N. Sacramento Ave.,60612,773-772-4063,Hispanic Housing Dev. Corp.,96,1155995.815,1916357.844,41.92627863,-87.70220924,"(41.926278629, -87.7022092387)"
Logan Square,22,Senior,Renaissance West,2517 W. Fullerton Ave.,60647,773-862-2500,Renaissance Realty Group Inc.,41,1159142.563,1915828.561,41.9247621,-87.69066098,"(41.9247620985, -87.6906609777)"
Logan Square,22,Multifamily,Zapata Apartments,3230 W. Armitage Ave,60647,773-227-6332,Bickerdike Apartments,100,1154370.985,1913144.88,41.91749465,-87.70826581,"(41.9174946519, -87.7082658078)"
Logan Square,22,Multifamily,Zapata Apartments,3503 W. Armitage Ave,60647,773-227-6332,Bickerdike Apartments,12,1152897.634,1913030.193,41.91720928,-87.71368201,"(41.9172092811, -87.713682006)"
Logan Square,22,Multifamily,Zapata Apartments,1955 N. St. Louis Ave.,60647,773-227-6332,Bickerdike Apartments,3,1152977.196,1913047.516,41.91725524,-87.71338923,"(41.9172552391, -87.7133892335)"
Logan Square,22,Multifamily,Zapata Apartments,3734 W. Cortland St.,60647,773-227-6332,Bickerdike Apartments,30,1151016.257,1912402.357,41.91552353,-87.72061073,"(41.9155235348, -87.720610728)"
Loop,32,Multifamily,Randolph Tower City Apartments (studios only),188 W. Randolph St.,60601,312-291-8679,Village Green Management Co.,16,1174747.572,1901307.252,41.88457966,-87.63375683,"(41.884579663, -87.6337568335)"
Lower West Side,31,Multifamily,Casa Puebla,2014 S. Racine Ave.,60608,312-666-1323,The Resurrection Project,63,1168646.297,1890365.991,41.85469028,-87.65647821,"(41.8546902787, -87.6564782084)"
Lower West Side,31,Multifamily,Casa Guerrero,963 W Cullerton St.,60608,312-666-1323,The Resurrection Project,52,1170238.806,1890555.169,41.8551748,-87.65062753,"(41.8551748018, -87.6506275348)"
Lower West Side,31,Multifamily,Casa Oaxaca,1714 W. 19th St.,60608,312-666-1323,The Resurrection Project,25,1165132.943,1890827.827,41.85603287,-87.66936057,"(41.8560328733, -87.6693605655)"
Lower West Side,31,Senior,Casa Maravilla,2021 S. Morgan St.,60608,312-666-1323,The Resurrection Project,5,1170051.208,1890349.587,41.85461476,-87.65132209,"(41.8546147585, -87.6513220922)"
Lower West Side,31,Multifamily,Casa Chiapas,1712 W. 17th St.,60608,312-666-1323,The Resurrection Project,72,1165119.373,1891824.739,41.85876878,-87.66938208,"(41.8587687803, -87.6693820787)"
Lower West Side,31,Multifamily,Casa Morelos,2015 S. Morgan St.,60608,312-666-1323,The Resurrection Project,4,1170049.336,1890417.784,41.85480194,-87.65132697,"(41.8548019389, -87.6513269744)"
Lower West Side,31,Multifamily,Casa Tabasco ,2014 S. Racine Ave.,60608,312-850-1935,The Resurrection Project,45,1168646.297,1890365.991,41.85469028,-87.65647821,"(41.8546902787, -87.6564782084)"
Lower West Side,31,Multifamily,Casa Monterrey,967 W. 19th St.,60608,312-666-1323,The Resurrection Project,4,1170202.356,1891062.313,41.85656724,-87.65074652,"(41.8565672424, -87.6507465232)"
Montclare,18,Senior,The Montclare Senior Residences ,6650 W. Belden Ave.,60707,773-237-3831,Pacific Management Inc.,7,1131547.932,1914379.416,41.92130822,-87.79209096,"(41.9213082228, -87.792090958)"
Montclare,18,ARO,TBD,"6602,6614 W. Diversey Ave.",60707,708-867-3799,Zitella Development ,3,1131884.372,1917931.507,41.93104976,-87.79077219,"(41.9310497553, -87.7907721868)"
Near North Side,8,Multifamily,North Town Village,1311 N. Halsted St.,60610,312-944-9488,Holsten Real Estate Dev. Corp.,317,1170813.062,1908876.862,41.90543825,-87.64798274,"(41.9054382467, -87.6479827434)"
Near North Side,8,Multifamily,Parkside-I Rental,545 W. Division St.,60610,312-944-8500,Holsten Management Corp.,116,1172154.289,1908220.998,41.90360901,-87.6430754,"(41.9036090085, -87.6430753954)"
Near North Side,8,Multifamily,Parkside of Old Town Phase IIA,544 W. Oak St.,60610,312-640-6032,Holsten Real Estate Dev. Corp.,111,1172196.032,1907097.533,41.90052524,-87.64295528,"(41.9005252379, -87.6429552753)"
Near North Side,8,Multifamily,North Town Village II,1311 N. Halsted St.,60642,312-944-9488,Holsten Real Estate Dev. Corp.,112,1170813.062,1908876.862,41.90543825,-87.64798274,"(41.9054382467, -87.6479827434)"
Near North Side,8,Supportive Housing,The Midwest/Carroll Park Apartments,1333 N. Kingsbury St.,60622,312-337-5339,Holsten Real Estate Dev. Corp.,40,1170359.454,1908979.929,41.905731,-87.64964597,"(41.9057310023, -87.6496459664)"
Near South Side,33,Senior,Senior Suites of Central Station,1400 S. Indiana Ave.,60605,312-913-9333,Senior Lifestyle Corp.,276,1177842.094,1893842.68,41.86402666,-87.62262043,"(41.8640266649, -87.622620427)"
Near South Side,33,Supportive Housing,The Studios,1801 S. Wabash St.,60616,312-326-5200,East Lake Management Co.,96,1177086.698,1891564.72,41.85779292,-87.62546237,"(41.857792921, -87.6254623688)"
Near South Side,33,Multifamily,Hillard Homes Phase I,2030 S. State St.,60616,312-225-7610,Holsten Real Estate Dev. Corp.,170,1176604.642,1890373.503,41.85453503,-87.62726774,"(41.854535033, -87.6272677388)"
Near South Side,33,Senior,Hilliard Homes Phase I,30 W. Cermak Road,60616,312-326-1455,Holsten Real Estate Dev. Corp.,151,1176346.441,1889816.861,41.85301339,-87.62823221,"(41.8530133902, -87.628232211)"
Near South Side,33,Multifamily,Hilliard Homes Phase II,2031 S. Clark St.,60616,312-326-1455,Holsten Management Corp.,176,1175862.866,1890322.361,41.8544114,-87.62999188,"(41.8544114001, -87.6299918764)"
Near South Side,33,Senior,Hilliard Homes Phase II,30 W. Cermak Road,60616,312-326-1466,Holsten Management Corp.,151,1176346.441,1889816.861,41.85301339,-87.62823221,"(41.8530133902, -87.628232211)"
Near South Side,33,Senior,G&A Senior Residences at Eastgate Village,300 E. 26th Street,60616,773-381-7400,Eastgate Village Partners LP,127,1178501.162,1887204.44,41.8457959,-87.62040337,"(41.8457959044, -87.6204033747)"
Near West Side,28,Multifamily,Westhaven Park Phase IIA,2237 W. Maypole Ave.,60612,312-455-0009,Interstate Realty Management Co.,92,1161390.347,1900920.966,41.88380799,-87.68281702,"(41.8838079875, -87.6828170157)"
Near West Side,28,Multifamily,Westhaven Park Phase IIB,110 N. Wood St.,60612,312-491-1117,Interstate Realty Management Co.,176,1164349.325,1900851.12,41.88355426,-87.67195337,"(41.8835542602, -87.6719533672)"
Near West Side,28,Multifamily,Westhaven Park IIC ,1939 W. Lake St.,60612,312-455-0009,Interstate Realty Management Co.,42,1163284.257,1901334.737,41.8849038,-87.67585077,"(41.8849038015, -87.6758507682)"
Near West Side,28,Multifamily,Roosevelt Square Phase I /ABLA Rental,1222 W. Roosevelt Road,60607,312-948-0116,Related Management Co. LP,105,1168285.133,1894881.985,41.86709035,-87.65767338,"(41.8670903488, -87.6576733813)"
Near West Side,28,Senior,Roosevelt Place,1401 W. Roosevelt Road,60608,312-733-2436,"East Lake Management Group, Inc.",181,1167191.396,1894769.797,41.86680605,-87.66169184,"(41.866806049, -87.6616918421)"
Near West Side,28,Senior,Loomis Court,1314 W. 15th St.,60608,312-850-4128,CHA,68,1167767.395,1892902.581,41.86166987,-87.65963108,"(41.8616698673, -87.659631083)"
Near West Side,28,Multifamily,Newberry Park Apartments,1355 S. Blue Island Ave.,60608,312-563-0099,AIMCO,124,1168817.278,1893757.841,41.8639941,-87.65575239,"(41.8639940988, -87.6557523872)"
Near West Side,28,Multifamily,Near West Side Apartments,216 S. Hoyne Ave.,60612,312-738-2280,Baker-Simmons Apartments,84,1162403.567,1898857.889,41.87812559,-87.67915413,"(41.8781255904, -87.6791541271)"
Near West Side,28,Multifamily,St. Andrew's Court,50 N. Hoyne Ave.,60612,312-226-7620,St. Andrew's Court LP,15,1162359.526,1900563.445,41.8828067,-87.67926811,"(41.8828067022, -87.6792681084)"
Near West Side,28,Multifamily,Jackson Square West End,2425 W. Adams St.,60612,312-492-6645,East Lake Management Co.,115,1160165.746,1898949.65,41.8784239,-87.68736835,"(41.8784239004, -87.6873683543)"
Near West Side,28,Supportive,Harvest Commons,1519 W. Warren Blvd.,60607,312-660-1354,Heartland Houisng Inc.,89,1165979.3,1900396.393,41.88227183,-87.66598098,"(41.8822718277, -87.6659809767)"
New City,61,Multifamily,Senior Suites of New City,4845 S. Western Blvd.,60609,773-523-9333,Senior Lifestyle Corp.,115,1161385.374,1872314.959,41.80531018,-87.68362994,"(41.8053101773, -87.6836299382)"
New City,61,Senior,West Haven Homes,850 W. Garfield Blvd.,60609,773-536-3057,"Universal Management Service, Inc.",110,1171337.269,1868414.146,41.7943937,-87.64724467,"(41.7943936951, -87.6472446717)"
New City,61,Senior,Goldblatt's Senior Living,1615 W. 47th St.,60609,877-882-1495,BMA Management Ltd.,101,1166287.997,1873508.207,41.80848148,-87.66561509,"(41.8084814825, -87.6656150864)"
North Center,5,Senior,North Center Senior Apartments,2324 W. Irving Park Road,60618,773-478-8900,"Metroplex, Inc.",60,1160064.901,1926543.181,41.95414467,-87.68697505,"(41.9541446663, -87.6869750499)"
North Lawndale,29,Senior,Roosevelt Towers,3440 W. Roosevelt Road,60624,773-265-6961,"East Lake Management Group, Inc.",104,1153440.124,1894532.775,41.86643977,-87.71218086,"(41.8664397713, -87.7121808603)"
North Lawndale,29,Senior,Tabernacle Apartments,3836 W. Cermak Road,60623,773-762-3389,Lawndale Christian Residential Svcs.,126,1150987.19,1889144.749,41.85170274,-87.72132688,"(41.8517027368, -87.7213268803)"
North Lawndale,29,Multifamily,Lazarus Apartments,1859 S. Pulaski Ave.,60623,773-762-3389,Lawndale Christian Residential Svcs.,26,1150056.063,1890463.503,41.85533972,-87.72471008,"(41.8553397217, -87.7247100763)"
North Lawndale,29,Multifamily,Dicksons Estates Apartments,1129 S. Sacramento Ave.,60612,773-638-0386,Dickson Estates Apartments,48,1156574.009,1894894.51,41.86736961,-87.70066623,"(41.8673696101, -87.7006662254)"
North Lawndale,29,Multifamily,Praise Apartments,1859 S. Pulaski Road,60623,773-762-3389,Lawndale Christian Residential Svcs.,11,1150056.063,1890463.503,41.85533972,-87.72471008,"(41.8553397217, -87.7247100763)"
North Lawndale,29,Multifamily,Fountain View Apartments,1331 S. Independence Blvd.,60623,773-762-3389,Lawndale Christian Residential Svcs.,32,1151511.158,1893415.133,41.86341092,-87.71929168,"(41.8634109156, -87.7192916814)"
North Lawndale,29,Multifamily,Lawndale Restoration II Apartments,3200 block of West Douglas Blvd.,60613,312-337-5339,Holsten Management Corp.,45,,,,,
North Lawndale,29,Multifamily,Dr. King Apartments,1550 S. Hamlin Ave.,60623,773-776-7233,Lawndale Christian Residential Svcs.,170,1151263.623,1891891.93,41.85923592,-87.7202403,"(41.8592359223, -87.720240298)"
North Lawndale,29,Supportive/HIV/AIDS,Hope House,1251 S. Sawyer Ave.,60623,773-935-4663,"AIDSCare, Inc.",80,1154939.023,1893956.68,41.86482901,-87.70669366,"(41.8648290106, -87.7066936632)"
North Lawndale,29,Supportive/Youth/Kinship Families,Sankofa House,4041 W. Roosevelt Road,60624,773-257-8800,Interfaith Housing Corp.,32,1149479.823,1894358.781,41.86604003,-87.72672414,"(41.8660400256, -87.7267241437)"
North Lawndale,29,Supportive Housing,Independence Apartments,927 S. Independence Blvd.,60624,773-549-8300,Realty & Mortgage Co.,58,1151446.075,1895529.682,41.86921476,-87.71947509,"(41.8692147569, -87.7194750917)"
North Lawndale,29,Multifamily,Dicksons Estates Apartments,1129 S. Sacramento Ave.,60612,773-638-0386,Dickson Estates Apartments,42,1156574.009,1894894.51,41.86736961,-87.70066623,"(41.8673696101, -87.7006662254)"
North Lawndale,29,Multifamily,Renaissance Place Apartments,3128 W. Douglas Blvd.,60623,773-762-3389,Lawndale Christian Residential Svcs.,11,1155600.26,1893326.92,41.86308761,-87.70428319,"(41.8630876114, -87.7042831894)"
North Lawndale,29,Multifamily,Park Douglas,Ogden/California/Talman,60608,773-893-4800,Interstate Realty Management Co.,54,,,,,
North Park,13,Senior,North Park Village Apartments,5801 N. Pulaski Road,60646,773-478-6890,EHDOC,137,1148723.501,1938044.237,41.98593151,-87.72836921,"(41.9859315142, -87.72836921)"
North Park,13,Senior,Edward M. Marx Apartments,5801 N. Pulaski Road,60646,773-583-4182,EHDOC,180,1148723.501,1938044.237,41.98593151,-87.72836921,"(41.9859315142, -87.72836921)"
Norwood Park,,Senior,Senior Suites of Norwood Park,5700 N. Harlem Ave.,60631,888-339-2315,Senior Lifestyle ,84,1127328.815,1937441.873,41.98466628,-87.80707301,"(41.9846662832, -87.8070730079)"
Oakland,36,Multifamily,Oakwood Shores 1A,37th/Ellis,60653,773-373-1300,"The Community Builders, Inc.",40,,,,,
Oakland,36,Multifamily,Oakwood Shores 1B,37th/Cottage,60653,773-373-1300,"The Community Builders, Inc.",163,,,,,
Oakland,36,Multifamily,Oakwood Shores 2A,37th/Langley,60653,773-373-1300,"The Community Builders, Inc.",162,,,,,
Oakland,36,Multifamily,Oakwood Shores 2B 1,38th/Vincennes,60653,773-373-1300,"The Community Builders, Inc.",199,,,,,
Oakland,36,Multifamily,Oakwood Shores Senior Apartments,3750 S. Cottage Grove Ave.,60653,773-373-1300,"The Community Builders, Inc.",75,1181862.329,1880153.551,41.82637057,-87.60828676,"(41.8263705668, -87.6082867641)"
Oakland,36,Multifamily,Lake Park Crescent,1061 E. 41st Place,60653,773-268-0200,"Draper and Kramer, Inc.",32,1184161.776,1877771.789,41.81978129,-87.59992527,"(41.8197812878, -87.5999252673)"
Oakland,36,Senior,Oakwood Shores Terrace,3755 S. Cottage Grove Ave.,60653,773-373-1300,"The Community Builders, Inc.",148,1181955.52,1880134.932,41.82631731,-87.60794545,"(41.826317314, -87.6079454471)"
Pullman,50,Multifamily,Pullman Wheelworks,901 E. 104th St.,60628,773-785-1300,Mercy Housing,210,1184202.937,1836150.183,41.70556659,-87.60107403,"(41.7055665942, -87.6010740303)"
Pullman,50,Senior,Pullman Suites,15 E. 112th Place,60628,773-840-3993,Triangle & Assoc.,60,1178428.442,1830343.03,41.68976374,-87.62239508,"(41.6897637422, -87.6223950849)"
Riverdale,54,Senior,Concordia Apartments,13037 S. Daniel Dr.,60627,773-995-5200,"DRE, Inc.",75,1180294.274,1818758.372,41.65793125,-87.6159174,"(41.6579312533, -87.6159174009)"
Rogers Park,1,Supportive Housing,Wayne Street Apartments,6808 N. Wayne Ave.,60626,773-572-5272,The Thresholds,297,1165865.348,1945401.689,42.00577097,-87.66511109,"(42.0057709728, -87.6651110904)"
Rogers Park,1,Senior,Morse Senior Apartments,6928 N. Wayne Ave.,60626,312-602-6207,Morse Urban Dev.,44,1165843.898,1946058.513,42.00757377,-87.66517114,"(42.0075737709, -87.6651711448)"
Rogers Park,1,Senior,James Sneider Apartments,7450 N. Rogers Ave.,60626,773-743-3699,Hispanic Housing Dev. Corp.,57,1163640.709,1949531.171,42.01714971,-87.67317857,"(42.0171497111, -87.6731785733)"
Rogers Park,1,Senior,Wayne Senior Housing,6928 N. Wayne Ave.,60626,773-274-0177,CIG Management,119,1165843.898,1946058.513,42.00757377,-87.66517114,"(42.0075737709, -87.6651711448)"
Roseland,49,Supportive Housing,Wentworth Commons,11045 S. Wentworth Ave.,60628,773-568-7804,Mercy Housing Lakefront,50,1176951.402,1831516.016,41.69301591,-87.62776735,"(41.6930159121, -87.6277673462)"
Roseland,49,Multifamily,Roseland Ridge Apartments,10513 S. Michigan Ave.,60628,773-341-3158,NHS Redevelopment Corp.,51,1178893.699,1835198.534,41.70307738,-87.62054468,"(41.7030773785, -87.6205446771)"
Roseland,49,Supportive Housing,Holland Apartments,240 W. 107th Place,60628,773-568-3031,Mercy Housing,40,1176448.512,1833690.986,41.69899564,-87.62954345,"(41.698995638, -87.6295434504)"
Roseland,49,Senior,Victory Center of Roseland,10450 S. Michigan Ave.,60628,773-468-6400,Pathway Senior Living ,81,1178829.401,1835494.405,41.70389075,-87.62077116,"(41.7038907515, -87.6207711553)"
Roseland,49,Senior,Roseland Ridge Senior Apartments,10400-30 S. Michigan Ave.,60628,773-548-8301,Neighborhood Housing Services,124,1178859.465,1836023.491,41.70534195,-87.62064503,"(41.7053419518, -87.6206450334)"
Roseland,,Inter-generational,Roseland Village Grand-Family Apartments,63 E. 104th St.,60628,773-468-1901,Mercy Housing,10,1178767.713,1835996.433,41.70526978,-87.62098184,"(41.7052697846, -87.6209818377)"
South Chicago,46,Senior,Victory Center of South Chicago,3251 E. 92nd St.,60617,773-449-2600,Pathway Senior Living ,60,1199523.085,1844538.456,41.72821355,-87.54469279,"(41.7282135464, -87.5446927939)"
South Chicago,46,Supportive Housing,Bettendorf Place SRO,8425 S. Saginaw Ave.,60617,773-359-4902,Alexian Brothers Bonaventure House,112,1195337.919,1849509.651,41.74195912,-87.5598599,"(41.7419591238, -87.5598598952)"
South Chicago,46,Senior,Victory Center of South Chicago,9200 S. Burley Ave.,60617,773-449-2600,Pathway Senior Living ,23,1199232.901,1844538.1,41.72821986,-87.54575578,"(41.7282198588, -87.5457557823)"
South Chicago,46,Multifamily,Casa Kirk,3200 E. 92nd St.,60617,773-734-2884,Interfaith Housing Corp.,112,1198941.103,1844604.277,41.72840878,-87.54682246,"(41.7284087757, -87.546822457)"
South Lawndale,30,Multifamily,Casa Sor Juana,2700 S. Drake Ave.,60608,312-850-1935,The Resurrection Project,29,1153098.302,1885797.728,41.84247656,-87.71366715,"(41.842476558, -87.713667149)"
South Shore,43,Multifamily,Highlands Tudor Manor,7018 S. Cregier Ave.,60649,773-667-1940,Related Management Co. LP,18,1189376.954,1858721.452,41.76738208,-87.58140538,"(41.7673820796, -87.5814053802)"
South Shore,43,Senior,Senior Suites of Rainbow Beach,2804 E. 77th Place,60649,773-374-5333,Senior Lifestyle Corp.,87,1196631.912,1854159.484,41.7546866,-87.55496472,"(41.7546866025, -87.5549647165)"
South Shore,43,Senior,Rainbow's End,7538 S. Kingston Ave.,60649,773-768-5402,"Urban Property Advisors, LLC",84,1194467.28,1855300.561,41.75787127,-87.56285983,"(41.7578712724, -87.5628598349)"
South Shore,43,Senior,Senior Suites of South Shore,2355 E. 67th St.,60649,773-324-2333,Senior Lifestyle Corp.,55,1193073.323,1860960.163,41.77343579,-87.56778382,"(41.7734357917, -87.567783821)"
Uptown,3,Supportive Housing,Major Jenkins Apartments,5012 N. Winthrop Ave.,60640,773-506-3486,Mercy Housing,96,1167919.615,1933730.438,41.97370056,-87.65789194,"(41.9737005572, -87.6578919355)"
Uptown,3,Multifamily,Uptown Preservation Apartments,900 W. Windsor Ave.,60640,773-286-5400,Leasing & Management Co. Inc.,160,1169410.724,1930422.942,41.9645923,-87.65250544,"(41.9645923009, -87.6525054366)"
Uptown,3,Multifamily,Uptown Preservation Apartments,4431 N. Clifton Ave.,60640,773-286-5400,Leasing & Management Co. Inc.,18,1167869.511,1929704.264,41.96265369,-87.65819285,"(41.9626536881, -87.6581928459)"
Uptown,3,Multifamily,Uptown Preservation Apartments,927 W. Wilson Ave.,60640,773-286-5400,Leasing & Management Co. Inc.,18,1169143.773,1930693.074,41.96533937,-87.65347906,"(41.9653393681, -87.653479057)"
Uptown,3,Multifamily,Malden Arms Apartments,4727 N. Malden St.,60640,773-334-2164,Mercy Housing,41,1166646.838,1931640.345,41.96799271,-87.66263241,"(41.967992713, -87.6626324087)"
Uptown,3,Multifamily,Sunnyside Kenmore Apartments,847-49 W. Sunnyside Ave.,60640,773-769-3116,"Metroplex, Inc.",83,1169606.678,1930039.336,41.9635354,-87.65179619,"(41.9635353994, -87.6517961908)"
Uptown,3,Multifamily,Sunnyside Kenmore Apartments,4130 N. Kenmore Ave.,60640,773-769-3116,"Metroplex, Inc.",13,1168380.03,1927860.194,41.95758244,-87.65636944,"(41.9575824413, -87.6563694357)"
Uptown,3,Senior,Wilson Yard Senior Apartments,1032 W. Montrose Ave,60613,866-227-0438,Holsten Real Estate Dev. Corp.,13,1168438.959,1929421.65,41.96186585,-87.65610743,"(41.9618658533, -87.6561074284)"
Uptown,3,Senior,Kenmore Senior Housing,5040 N. Kenmore Ave.,60640,773-769-3006,The Habitat Co.,98,1168292.832,1934023.29,41.97449607,-87.65651102,"(41.9744960685, -87.6565110221)"
Uptown,3,Supportive Housing,Harold Washington Apartments,4946 N. Sheridan Road ,60640,312-447-4621,Mercy Housing,100,1168689.933,1933461.587,41.97294612,-87.65506712,"(41.9729461221, -87.6550671247)"
Uptown,3,Multifamily,850 Eastwood,850 W. Eastwood Ave.,60640,773-275-6877,Mercy Housing,69,1169619.113,1931130.186,41.96652845,-87.65171856,"(41.9665284532, -87.6517185639)"
Uptown,3,Senior,Ruth Shriman House,4040 N. Sheridan Road,60613,773-665-2210,Interfaith Housing Corp.,231,1168832.75,1927172.303,41.95568502,-87.65472513,"(41.9556850173, -87.6547251281)"
Uptown,,ARO,Somerset Place Apartments,5009 N. Sheridan Road,60640,317-596-2168,Zidan Management Group,16,1168763.559,1933706.921,41.97361773,-87.65478924,"(41.9736177254, -87.6547892431)"
Washington Heights,73,Senior,Senior Suites of Washington Heights,848 W. 103rd St.,60643,773-233-1333,Senior Lifestyle Corp.,82,1172263.727,1836577.477,41.70700943,-87.64478166,"(41.7070094274, -87.6447816603)"
Washington Heights,73,Senior,Brainerd Senior Center,8915 S. Loomis St.,60620,773-429-1501,Realty & Mortgage Co.,60,1168602.534,1845525.798,41.73164453,-87.65793186,"(41.7316445313, -87.6579318552)"
Washington Park,40,People with Disabilities,Urbanite Apartments,5441 S. Michigan Ave.,60615,773-285-3341,Assoc. of Chicago Day School,85,1178127.358,1868790.595,41.7952753,-87.62233438,"(41.7952753031, -87.6223343775)"
Washington Park,40,People with Disabilities,"Brand New Beginnings, Inc.",5801 S. Michigan Ave.,60637,773-955-5780,Harriet Tubman NFP,25,1178188.164,1866559.655,41.78915201,-87.62217908,"(41.7891520073, -87.6221790762)"
Washington Park,40,Multifamily,St. Edmund's Manor,5947 S. Indiana Ave.,60653,773-548-8924,St. Edmund's Manor Ltd.,24,1178662.056,1865432.916,41.78604936,-87.62047574,"(41.7860493567, -87.6204757369)"
Washington Park,40,Multifamily,St. Edmund's Village,6253 S. Michigan Ave.,60653,773-493-2411,St. Edmund's Village LP,31,1178307.697,1863372.599,41.78040369,-87.62183749,"(41.7804036945, -87.6218374892)"
Washington Park,40,Multifamily,Michigan Plaza (St. Edmund's Plaza),5701 S. Michigan Ave.,60653,773-548-8924,Michigan Plaza LP,230,1178170.371,1867225.804,41.79098039,-87.62222411,"(41.7909803898, -87.6222241137)"
Washington Park,40,Multifamily,Harriett Tubman Apartments,5751-59 S. Michigan Ave.,60637,773-752-9760,Brand New Beginnings Inc.,65,1178184.05,1866708.816,41.78956141,-87.62218963,"(41.7895614137, -87.6221896343)"
Washington Park,40,Supportive/Kinship Families,Coppin House,325-43 E. 55th Place,60637,773-752-2331,Interfaith Housing Corp.,28,1179276.077,1868251.46,41.79376972,-87.61813849,"(41.7937697184, -87.6181384856)"
Washington Park,40,Multifamily,St. Edmund's Commons,110 E. 60th St.,60637,773-420-3328,St. Edmund's Redevelopment Corp.,54,1178315.994,1865303.085,41.78570095,-87.6217485,"(41.7857009548, -87.6217485015)"
Washington Park,40,Senior HUD 202,St. Edmund's Corners,5556 S. Michigan Ave.,60637,773-667-7583,St. Edmund's Redevelopment Corp.,53,1178070.443,1867951.677,41.79297452,-87.62256852,"(41.7929745219, -87.6225685185)"
Washington Park,40,Senior,TRC Senior Village I,346 E. 53rd St.,60615,773-924-9270,The Renaissance Collaborative,35,1179447.49,1869994.898,41.79854996,-87.61745669,"(41.7985499558, -87.6174566934)"
West Englewood,67,Multifamily,Clara Temple Hampton Residence,1656 W. 63rd St.,60636,773-778-2884,West Englewood Dev. Org.,71,1166121.345,1862956.686,41.77953039,-87.66652651,"(41.779530386, -87.6665265092)"
West Englewood,67,Multifamily,Clara's Village,2115 W. 63rd St,60636,773-434-4929,Interfaith Housing Corp.,13,1163257.203,1862800.707,41.77916282,-87.6770312,"(41.7791628235, -87.6770311971)"
West Garfield Park,27,Supportive Housing,The Rebecca Johnson Apartments,2822 W. Jackson Blvd.,60612,773-638-6393,Deborah's Place Ltd.,52,1157527.975,1898606.336,41.87753589,-87.69706305,"(41.8775358858, -87.6970630483)"
West Lawn,65,Seniors,Senior Suites of Midway Village,6800 S. Keating Ave.,60629,888-339-2315,Senior Lifestyle Corp.,89,1145974.074,1859144.924,41.76947523,-87.74048606,"(41.7694752347, -87.740486055)"
West Pullman ,53,Supportive Housing,Hancock House,12045 S. Emerald Ave.,60628,773-568-3000,Source Works Development,90,1173523.536,1824810.063,41.67469008,-87.64051484,"(41.6746900779, -87.6405148423)"
West Pullman ,53,Senior,All Saints Senior Residence,11701 S. State St.,60628,312-655-7440,Catholic Charities Housing Devp.,42,1178389.496,1827364.136,41.6815901,-87.62262763,"(41.6815900986, -87.6226276337)"
West Ridge,2,Senior,G & A Senior Residences at Ravenswood,1818 W. Peterson Ave.,60660,773-381-7400,Eastgate Village Senior Corp.,89,1162949.472,1939941.189,41.99084916,-87.67599309,"(41.9908491577, -87.6759930884)"
West Ridge,2,Senior,West Ridge Senior Apartments,6142 N. California Ave.,60659,773-381-7400,West Ridge Senior Corp.,117,1156512.51,1940837.411,41.99344157,-87.69964542,"(41.9934415657, -87.6996454249)"
West Ridge,2,Senior,Lincoln Village Senior Apartments,6057 N. Lincoln Ave.,60659,773-338-5900,Perlmark Realty Management,99,1153825.547,1940243.379,41.99186565,-87.70954508,"(41.9918656495, -87.7095450826)"
West Ridge,2,ARO,"5822 North Western, LLC",5822 N. Western Ave.,60659,773-572-2755,Chicago Apartment Finders,2,1159227.225,1938700.509,41.98752226,-87.68971871,"(41.9875222634, -87.6897187055)"
West Town,24,Supportive Housing,Wicker Park Renaissance,1527-31 N. Wicker Park Ave.,60622,773-278-8602,"RRG Development, Inc.",102,1162934.319,1910028.946,41.90876874,-87.67689152,"(41.9087687359, -87.6768915182)"
West Town,24,Multifamily,Paseo Boricua Apartments,1154 N. Campbell St.,60622,312-602-6500,Hispanic Housing Dev. Corp.,61,1159482.293,1907856.105,41.90287808,-87.68963252,"(41.902878079, -87.6896325219)"
West Town,24,Multifamily,La Estancia,2753 W. Division St.,60622,773-227-6332,Bickerdike Redevelopment Corp.,59,1157605.979,1907820.481,41.90281875,-87.69652556,"(41.902818751, -87.6965255554)"
West Town,24,Multifamily,North and Talman Family Apts.,2654 W. North Ave.,60647,773-486-7410,Hispanic Housing Dev. Corp.,30,1158184.401,1910570.961,41.91035449,-87.69432564,"(41.9103544922, -87.6943256397)"
West Town,24,Senior,North & Talman Elderly Apts.,1600 N. Talman Ave.,60647,773-486-7410,Hispanic Housing Dev. Corp.,24,1158416.973,1910568.81,41.91034383,-87.69347132,"(41.9103438337, -87.6934713169)"
West Town,24,Multifamily,Boulevard Court Family Housing,1723-33 N. Humboldt Blvd.,60647,773-486-7410,Hispanic Housing Dev. Corp.,52,1156143.31,1911450.19,41.91280865,-87.70180006,"(41.9128086528, -87.701800063)"
West Town ,24,Multifamily,North & Talman Phase III,2656 W. North Ave.,60647,773-602-2888,Hispanic Housing Dev. Corp.,18,1158163.07,1910570.521,41.91035372,-87.69440401,"(41.9103537221, -87.694404013)"
West Town,24,Multifamily,Borinquen Bella Apartments,"1414,1451 N. Washtenaw Ave.",60622,"773-276-5338, ext. 225",LUCHA,23,1158113.714,1909378.978,41.90708504,-87.69461792,"(41.9070850396, -87.6946179242)"
West Town,24,Multifamily,Borinquen Bella Apartments,"1318,1456 N. Rockwell Ave.",60622,"773-276-5338, ext. 225",LUCHA,24,1158786.704,1908791.071,41.905458,-87.69216188,"(41.905457998, -87.6921618816)"
West Town,24,ARO,1611 West Division,1611 W. Division St.,60622,773-661-5500,M. Fishman & Co.,10,1165376.188,1908029.505,41.9032305,-87.66797825,"(41.9032305014, -87.667978248)"
Woodlawn,42,Multifamily,Woodlawn-Michigan Development,6446 S. Kenwood Ave.,60637,312-226-2200,Wolcott Real Property LLC,33,1186141.366,1862376.561,41.77748903,-87.59314971,"(41.7774890264, -87.5931497136)"
Woodlawn,42,Multifamily,Eddie Mae & Alex Johnson Apartments,6230 S. Dorchester Ave.,60637,773-288-4202,Woodlawn East Community,84,1186573.262,1863816.865,41.78143113,-87.59152085,"(41.7814311307, -87.5915208532)"
Woodlawn,42,Multifamily,Renaissance Apartments,6200 S. University Ave.,60637,773-752-9400,AIMCO,64,1184799.335,1864093.117,41.782231,-87.59801573,"(41.7822309985, -87.598015727)"
Woodlawn,42,Multifamily,WECAN,6450 S. Stony Island Ave.,60637,773-288-3000,WECAN,117,1187957.596,1862318.637,41.77728699,-87.58649335,"(41.7772869881, -87.5864933515)"
Woodlawn,42,Multifamily,65th Street Apartments,6600 S. Greenwood Ave.,60637,773-684-2056,"Urban Property Advisors, LLC",42,1184316.038,1861429.077,41.77493196,-87.59987091,"(41.7749319632, -87.5998709117)"
Woodlawn,42,Multifamily,65th Street Apartments,6522 S. Ingleside Ave.,60637,773-684-2056,"Urban Property Advisors, LLC",18,1183642.029,1861850.344,41.77610371,-87.60232857,"(41.7761037074, -87.6023285746)"
Woodlawn,42,Multifamily,65th Street Apartments,6400 S. Maryland Ave.,60637,773-684-2056,"Urban Property Advisors, LLC",15,1182961.608,1862758.255,41.77861094,-87.60479472,"(41.7786109444, -87.6047947203)"
Woodlawn,42,Multifamily,65th Street Apartments,848-58 E. 65th St.,60637,773-684-2056,"Urban Property Advisors, LLC",6,1183196.24,1862140.115,41.77690925,-87.60395378,"(41.7769092523, -87.603953777)"
Woodlawn,42,Multifamily,65th Street Apartments,817 E. 64th St.,60637,773-684-2056,"Urban Property Advisors, LLC",6,1182886.226,1862714.794,41.77849343,-87.60507242,"(41.7784934339, -87.6050724236)"
Woodlawn,42,Multifamily,Dorchester Apartments,1410 E. 62nd St.,60637,773-572-5500,The Thresholds,67,1186722.404,1864209.572,41.78250522,-87.59096164,"(41.7825052194, -87.5909616433)"
Woodlawn,42,Senior,Butler Apartments,6146 S. Kenwood Ave.,60637,773-955-9290,Woodlawn Comm. Dev. Corp.,17,1186094.259,1864312.843,41.78280346,-87.59326131,"(41.7828034603, -87.5932613147)"
Woodlawn ,42,Multifamily,The Grant at Woodlawn Pk Phase I,6227-29 S. Cottage Grove Ave.,60637,312-283-0030,Preservation Housing Management LLC,67,1182676.847,1863775.147,41.781408,-87.60580712,"(41.7814080037, -87.6058071228)"
Woodlawn,42,Multifamily,The Grant at Woodlawn Pk Phase II,6129 S. Cottage Grove Ave.,60637,312-283-0030,Preservation Housing Management LLC,33,1182661.471,1864419.23,41.78317579,-87.60584352,"(41.7831757851, -87.6058435155)"
Uptown,3,Multifamily,Malden Arms Apts.,4727 N. Malden St.,60640,773-334-2164,Mercy Housing,41,1166646.838,1931640.345,-87.66263241,41.96799271,"(-87.6626324087, 41.967992713)"
Edgewater,77,Multifamily,Winthrop Apts.,6214 N. Winthrop Ave.,60660,773-477-7070 ,Hunter Properties,108,1167688.709,1941496.368,-87.65851604,41.99501546,"(-87.6585160357, 41.9950154576)"
Douglas,35,Multifamily,Park Boulevard IIA,17 W. 36th St.,60609,773-548-8792,"Urban Property Advisors, LLC",36,1176708.767,1881091.479,-87.62716568,41.82906211,"(-87.6271656778, 41.8290621083)"
Near West Side,28,Multifamily,St. Andrew's Court,50 N. Hoyne Ave.,60612,312-226-7620,St. Andrew's Court LP,15,1162359.526,1900563.445,-87.67926811,41.8828067,"(-87.6792681084, 41.8828067022)"
Chicago Lawn,66,Senior,Churchview Supportive Assisted Living,2626 W. 63rd St.,60629,773-471-4444,Greater Southwest Dev. Corp.,86,1159807.028,1862817.69,-87.68967949,41.77928099,"(-87.6896794864, 41.7792809902)"
Chatham,44,Supportive Housing,Karibuni Place,8200 S. Ellis Ave.,60619,773-873-0708,Heartland Housing,72,1184284.153,1850796.894,-87.60031991,41.74575696,"(-87.6003199107, 41.7457569581)"
Near West Side,28,Multifamily,Roosevelt Square Phase I /ABLA Rental,1222 W. Roosevelt Road,60607,312-948-0116,Related Management Co. LP,105,1168285.133,1894881.985,-87.65767338,41.86709035,"(-87.6576733813, 41.8670903488)"
Avalon Park,45,Senior,Montclare Senior Residences of Avalon Park,1200 E. 78th St.,60619,773-933-9000,Montclare Senior Residences,102,1185587.742,1853564.459,-87.5954564,41.75332086,"(-87.5954564009, 41.7533208609)"
Humboldt Park,23,Multifamily,Rosa Parks Apts.,526 N. St. Louis Ave.,60624,773-227-6332,Bickerdike Apts.,12,1152910.964,1903460.212,-87.71388693,41.8909481,"(-87.7138869273, 41.8909480951)"
Near North Side,8,Multfamily,Parkside of Old Town IIB,1151 N. Cleveland Ave.,60622,312-944-8500,Holsten Real Estate Dev. Corp.,12,1172709.408,1907999.787,-87.64104289,41.90298972,"(-87.6410428925, 41.902989721)"
Hyde Park,41,Multifamily,Hyde Park Apts.,5330 S. Harper Ave.,60615,773-955-2610,"DRE, Inc.",36,1187148.234,1870068.251,-87.58921454,41.79857178,"(-87.5892145402, 41.7985717841)"
Oakland,36,Multifamily,Lakefront Phase II,1106 E. 42nd Pl,60653,773-548-8795,"Urban Property Advisors, LLC",3,1184320.237,1877174.699,-87.59936268,41.81813912,"(-87.5993626833, 41.8181391197)"
Woodlawn,42,Multifamily,65th Street Apts.,6600 S. Greenwood Ave.,60637,773-684-2056,"Urban Property Advisors, LLC",42,1184316.038,1861429.077,-87.59987091,41.77493196,"(-87.5998709117, 41.7749319632)"
Humboldt Park,23,Multifamily,Nelson Mandela Apts.,614 N. Spaulding Ave.,60624,773-227-6332,Bickerdike Apts.,6,1154224.542,1903987.92,-87.70904868,41.89237005,"(-87.7090486845, 41.8923700513)"
West Town ,24,Multifamily,North & Talman Phase III,2656 W. North Ave.,60647,773-602-2888,Hispanic Housing Dev. Corp.,18,1158163.07,1910570.521,-87.69440401,41.91035372,"(-87.694404013, 41.9103537221)"
Logan Square,22,ARO,Noca Blu,2328-48 N. California Ave.,60647,707-483-8708,Pinnacle Living,14,1157275.918,1915411.868,-87.69753123,41.92365685,"(-87.6975312257, 41.9236568473)"
Douglas,35,Senior,Pioneer Gardens Supportive Living,3800 S. King Dr.,60653,773-420-4100,Pioneer Gardens Senior Housing,120,1179441.358,1879836.399,-87.61717842,41.825556,"(-87.6171784181, 41.8255559976)"
Grand Boulevard,38,Multifamily,Legends South - Coleman Place,223 E. 41st St.,60653,773-268-0202,Interstate Realty Management Co.,118,1178573.52,1877831.629,-87.6204233,41.82007455,"(-87.6204232972, 41.820074554)"
Humboldt Park,23,Multifamily,Rosa Parks Apts.,521 N. St. Louis Ave.,60624,773-227-6332,Bickerdike Apts.,6,1152991.429,1903446.155,-87.71359179,41.89090793,"(-87.7135917923, 41.8909079269)"
Albany Park,14,Senior,Darul Amaan Senior Living,4814-58 N. Kedzie Ave.,60625,773-463-3004,East Lake Management & Development Corp.,56,1154133.125,1931889.16,-87.70863783,41.96893506,"(-87.7086378257, 41.9689350644)"
Lakeview ,6,ARO,Clarkview Apts.,3228 N. Clark St.,60657,773-562-6149,Glascott Realty,2,1169778.211,1921699.272,-87.65140951,41.94064621,"(-87.6514095081, 41.9406462133)"
Edgewater,77,Multifamily,Bell Shore Apts.,1062 W. Bryn Mawr Ave.,60660,773-334-5407,Holsten Management Corp.,105,1167941.813,1937401.257,-87.65770384,41.9837729,"(-87.6577038394, 41.9837729037)"
West Garfield Park,26,Senior,Midwest Apts.,6 N. Hamlin Blvd.,60624,773-265-0323,Holsten Management Corp.,276,1151025.526,1899809.62,-87.72090693,41.88096762,"(-87.7209069325, 41.8809676236)"
Hyde Park,41,ARO,Vue53,1330 E. 53rd St.,60615,773-355-4972,Peak Campus,27,1185905.32,1870431.452,-87.59376104,41.79959787,"(-87.5937610369, 41.7995978694)"
Austin,25,Multifamily,Rebecca Walker Complex,223-9 S. Central Ave.,60644,773-261-1550,Affordable Property Management Specialist,12,1139130.076,1898499.873,-87.76461864,41.87759814,"(-87.7646186402, 41.8775981392)"
Humboldt Park,23,Senior,LUCHA Affordable Units,3541 W. North Ave.,60647,312-276-5338,LUCHA,69,1152271.525,1910359.241,-87.71605298,41.90989234,"(-87.7160529794, 41.9098923382)"
Humboldt Park,23,Multifamily,La Estancia,3220 W. Division St.,60651,773-227-6332,Bickerdike Apts.,18,1154584.663,1907840.061,-87.70762292,41.90293349,"(-87.7076229238, 41.9029334898)"
Roseland,49,Inter-generational,Roseland Village Grand-Family Apts.,63 E. 104th St.,60628,773-468-1901,Mercy Housing,10,1178767.713,1835996.433,-87.62098184,41.70526978,"(-87.6209818377, 41.7052697846)"
Humboldt Park,23,Multifamily,La Estancia,3248 W. Division St.,60651,773-227-6332,Bickerdike Apts.,9,1154314.32,1907834.526,-87.7086161,41.90292371,"(-87.7086160992, 41.902923708)"
East Garfield Park,27,Multifamily,Liberty Square Apts.,705-23 S. Independence Ave.,60624,773-538-3800,Bonheur Realty Services Corp.,66,1151407.461,1896705.24,-87.71958599,41.87244138,"(-87.7195859945, 41.8724413776)"
Austin,25,Supportive Housing,Menard Apartments,334 N. Menard Ave.,60644,773-572-5272,The Thresholds,57,1137606.415,1901816.665,-87.77013329,41.88672742,"(-87.7701332901, 41.8867274207)"
Lower West Side,31,Multifamily,Casa Tabasco ,2014 S. Racine Ave.,60608,312-850-1935,The Resurrection Project,45,1168646.297,1890365.991,-87.65647821,41.85469028,"(-87.6564782084, 41.8546902787)"
West Ridge,2,Senior,West Ridge Senior Apts.,6142 N. California Ave.,60659,773-381-7400,West Ridge Senior Corp.,117,1156512.51,1940837.411,-87.69964542,41.99344157,"(-87.6996454249, 41.9934415657)"
Lower West Side,31,Multifamily,Casa Oaxaca,1714 W. 19th St.,60608,312-666-1323,The Resurrection Project,25,1165132.943,1890827.827,-87.66936057,41.85603287,"(-87.6693605655, 41.8560328733)"
North Lawndale,29,Multifamily,Park Douglas,1260 S. Fairfield Ave.,60608,773-893-4800,Interstate Realty Management Co.,1,1158196.48,1893944.253,-87.69473582,41.86472904,"(-87.6947358195, 41.8647290398)"
West Town,24,ARO,East Village Lofts,1100 N. Ashland Ave.,60622,773-218-7500,Wicker Park Apartments Inc.,1,1165486.105,1907421.224,-87.66759184,41.901559,"(-87.667591842, 41.9015589973)"
Roseland,49,Senior,Victory Center of Roseland,10450 S. Michigan Ave.,60628,773-468-6400,Pathway Senior Living ,81,1178829.401,1835494.405,-87.62077116,41.70389075,"(-87.6207711553, 41.7038907515)"
Humboldt Park,23,Multifamily,Rosa Parks Apts.,3341 W. Ohio St.,60624,773-227-6332,Bickerdike Apts.,16,1153814.924,1903755.65,-87.71055924,41.89174085,"(-87.7105592395, 41.8917408493)"
Woodlawn,42,Multifamily,Woodlawn-Michigan Development,6446 S. Kenwood Ave.,60637,312-226-2200,Wolcott Real Property LLC,33,1186141.366,1862376.561,-87.59314971,41.77748903,"(-87.5931497136, 41.7774890264)"
Woodlawn,42,Multifamily,65th Street Apts.,817 E. 64th St.,60637,773-684-2056,"Urban Property Advisors, LLC",6,1182886.226,1862714.794,-87.60507242,41.77849343,"(-87.6050724236, 41.7784934339)"
West Town,24,Multifamily,Borinquen Bella Apts.,"1414,1451 N. Washtenaw Ave.",60622,773-276-5338,LUCHA,23,1158113.714,1909378.978,-87.69461792,41.90708504,"(-87.6946179242, 41.9070850396)"
Near West Side,28,Multifamily,Near West Side Apts.,216 S. Hoyne Ave.,60612,312-738-2280,Baker-Simmons Apartments,84,1162403.567,1898857.889,-87.67915413,41.87812559,"(-87.6791541271, 41.8781255904)"
Belmont Cragin,19,Senior,Senior Suites of Kelvyn Park,2715 N. Cicero Ave.,60639,773-252-0333,Senior Lifestyle Corp.,85,1143963.795,1917674.647,-87.74638854,41.93012657,"(-87.7463885389, 41.9301265688)"
Rogers Park,1,Senior,Morse Senior Apts.,6928 N. Wayne Ave.,60626,312-602-6207,Morse Urban Dev.,44,1165843.898,1946058.513,-87.66517114,42.00757377,"(-87.6651711448, 42.0075737709)"
Garfield Ridge,56,Senior,Senior Suites of Garfield Ridge,5839 S. Harlem Ave.,60638,773-229-1533,Senior Lifestyle Corp.,87,1129403.745,1864822.912,-87.801098,41.78535412,"(-87.8010979955, 41.7853541249)"
Oakland,36,Multifamily,"Oakwood Shrs 1A, 1B, 2A, 2B1 (scattered sites)",3859 S. Vincennes Ave.,60653,773-373-1300,The Community Builders,534,1180730.096,1879250.693,-87.61246844,41.8239192,"(-87.6124684434, 41.8239192007)"
Lower West Side,31,Multifamily,Casa Morelos,2015 S. Morgan St.,60608,312-666-1323,The Resurrection Project,4,1170049.336,1890417.784,-87.65132697,41.85480194,"(-87.6513269744, 41.8548019389)"
Englewood,68,Supportive/Veterans,Hope Manor II Apts.,6002 S. Halsted St.,60621,773-874-3610,Voluinteers of America Illinois,73,1171959.565,1864993.894,-87.64506314,41.78499449,"(-87.6450631449, 41.7849944939)"
Uptown,3,ARO,811 Uptown,811 W. Agatite Ave.,60640,312-402-7784,RL Accelerated,22,1169980.753,1929712.369,-87.65043043,41.96263002,"(-87.650430429, 41.962630019)"
West Pullman ,53,Senior,All Saints Senior Residence,11701 S. State St.,60628,312-655-7440,Catholic Charities Housing Devp.,42,1178389.496,1827364.136,-87.62262763,41.6815901,"(-87.6226276337, 41.6815900986)"
Englewood,68,Supportive Housing,Englewood Apts.,901 W. 63rd Street,60621,773-994-3199,Mercy Housing,45,1171373.661,1863023.368,-87.64726896,41.77959999,"(-87.6472689598, 41.7795999913)"
Lincoln Square,4,ARO,Ravenswood Terrace,1801-15 W. Argyle St.,60640,773-444-8733,Kass Management,15,1163292.382,1933204.703,-87.67492225,41.97235677,"(-87.6749222533, 41.9723567701)"
Washington Park,40,People with Disabilities,Urbanite Apartments,5441 S. Michigan Ave.,60615,773-285-3341,Assoc. of Chicago Day School,85,1178127.358,1868790.595,-87.62233438,41.7952753,"(-87.6223343775, 41.7952753031)"
Uptown,3,Multifamily,Sunnyside Kenmore Apts.,847-49 W. Sunnyside Ave.,60640,773-769-3116,"Metroplex, Inc.",83,1169606.678,1930039.336,-87.65179619,41.9635354,"(-87.6517961908, 41.9635353994)"
Lakeview ,6,ARO,927 W. Irving,927 W. Irving Park Rd.,60613,773-665-0103,DLG Management,1,1169246.126,1926706.623,-87.65321906,41.95439818,"(-87.6532190636, 41.9543981834)"
North Lawndale,29,Supportive/Youth/Kinship Families,Sankofa House,4041 W. Roosevelt Road,60624,773-257-8800,Interfaith Housing Corp.,32,1149479.823,1894358.781,-87.72672414,41.86604003,"(-87.7267241437, 41.8660400256)"
West Town,24,Senior,North & Talman Elderly Apts.,1600 N. Talman Ave.,60647,773-486-7410,Hispanic Housing Dev. Corp.,24,1158416.973,1910568.81,-87.69347132,41.91034383,"(-87.6934713169, 41.9103438337)"
North Lawndale,29,Supportive/HIV/AIDS,Hope House,1251 S. Sawyer Ave.,60623,773-935-4663,"AIDSCare, Inc.",80,1154939.023,1893956.68,-87.70669366,41.86482901,"(-87.7066936632, 41.8648290106)"
Washington Park,40,Multifamily,Harriett Tubman Apts.,5751-59 S. Michigan Ave.,60637,773-752-9760,Brand New Beginnings Inc.,65,1178184.05,1866708.816,-87.62218963,41.78956141,"(-87.6221896343, 41.7895614137)"
North Park,13,Senior,North Park Village Apts.,5801 N. Pulaski Road,60646,773-478-6890,Elderly Housing Devp. & Operations Corp.,137,1148723.501,1938044.237,-87.72836921,41.98593151,"(-87.72836921, 41.9859315142)"
Washington Park,40,Multifamily,St. Edmund's Oasis,215 E. 61st St.,60637,773-493-2411,St. Edmund's Redevelopment Corp.,5,1178814.52,1864578.625,-87.61994272,41.78370163,"(-87.6199427242, 41.7837016281)"
West Lawn,65,Seniors,Senior Suites of Midway Village,6800 S. Keating Ave.,60629,888-339-2315,Senior Lifestyle Corp.,89,1145974.074,1859144.924,-87.74048606,41.76947523,"(-87.740486055, 41.7694752347)"
Uptown,3,Senior,Kenmore Senior Housing,5040 N. Kenmore Ave.,60640,773-769-3006,The Habitat Co.,98,1168292.832,1934023.29,-87.65651102,41.97449607,"(-87.6565110221, 41.9744960685)"
Near North Side,8,ARO,Atrium at Old Town Park,300 W. Hill St.,60610,312-642-8707,Omni Group,41,1174106.104,1907721.573,-87.63592092,41.90219524,"(-87.6359209164, 41.9021952433)"
North Lawndale,29,Multifamily,Park Douglas,1254-56 S. Fairfiled Ave.,60608,773-893-4800,Interstate Realty Management Co.,7,1158194.723,1894001.251,-87.69474071,41.86488549,"(-87.6947407139, 41.8648854853)"
West Town,24,Multifamily,Paseo Boricua Apts.,1154 N. Campbell St.,60622,312-602-6500,Hispanic Housing Dev. Corp.,61,1159482.293,1907856.105,-87.68963252,41.90287808,"(-87.6896325219, 41.902878079)"
Rogers Park,1,Senior,Wayne Senior Housing,6928 N. Wayne Ave.,60626,773-274-0177,CIG Management,119,1165843.898,1946058.513,-87.66517114,42.00757377,"(-87.6651711448, 42.0075737709)"
Near North Side,8,Multifamily,Parkside of Old Town IIB,459 W. Division St.,60622,312=944-8500,Holsten Real Estate Dev. Corp.,94,1172865.271,1908241.237,-87.64046322,41.90364882,"(-87.6404632193, 41.9036488171)"
Uptown,3,Multifamily,Magnolia Court Apts.,4878 N. Magnolia Ave.,60640,773-878-2186,"Park, Inc.",60,1167014.087,1932819.273,-87.66124806,41.97121983,"(-87.6612480605, 41.9712198343)"
Humboldt Park,23,Disabled/Homeless,West Humboldt Place,3543 W. Chicago Ave.,60651,773-826-1230,Childrens Place Association,13,1152439.724,1905064.22,-87.71557516,41.89535898,"(-87.7155751576, 41.8953589753)"
North Lawndale,29,Supportive Housing,Independence Apts.,927 S. Independence Blvd.,60624,773-549-8300,Realty & Mortgage Co.,58,1151446.075,1895529.682,-87.71947509,41.86921476,"(-87.7194750917, 41.8692147569)"
Woodlawn ,42,Multifamily,The Grant at Woodlawn Pk Phase I,6227-29 S. Cottage Grove Ave.,60637,312-283-0030,Preservation Housing Management LLC,67,1182676.847,1863775.147,-87.60580712,41.781408,"(-87.6058071228, 41.7814080037)"
Grand Boulevard,38,Multifamily,Hearts United III-The Leontyne (scattered sites),4340-2 S. Champlain St.,60653,773-924-2100,Bonheur Realty Services Corp.,53,1181273.656,1876588.698,-87.61055648,41.81660195,"(-87.6105564793, 41.8166019546)"
Near South Side,33,Senior,Senior Suites of Central Station,1400 S. Indiana Ave.,60605,312-913-9333,Senior Lifestyle Corp.,276,1177842.094,1893842.68,-87.62262043,41.86402666,"(-87.622620427, 41.8640266649)"
Austin,25,Multifamily,Pine Central,557 N. Pine Ave.,60644,773-568-1020,NHS Redevelopment Corp.,78,1139471.896,1903210.835,-87.76324864,41.8905194,"(-87.7632486365, 41.8905193977)"
Uptown,3,ARO,4801 N. Ravenswood Ave.,4801 N. Ravenswood Ave.,60640,773-929-7050,Hayes Properties Inc.,4,1163544.414,1931973.688,-87.67403032,41.9689735,"(-87.6740303236, 41.9689734978)"
Englewood,68,Senior,Sangamon Terrace,6415 S. Sangamon St.,60621,312-234-9400,Evergreen Real Estate Services,34,1171120.288,1862217.205,-87.6482214,41.77739333,"(-87.6482214016, 41.7773933302)"
Austin,25,Supportive/Teenage Moms,Home for New Moms,5327 W. Chicago Ave.,60651,773-610-7696,"New Moms, Inc.",40,1140544.652,1904774.781,-87.75927048,41.89479143,"(-87.7592704828, 41.8947914314)"
Grand Boulevard,38,Multifamily,Geneva Gables,4420-24 S. Michigan Ave.,60653,773-924-7700,Tri-Mart Management Co. ,65,1177858.686,1875634.197,-87.62311222,41.81406086,"(-87.6231122243, 41.8140608614)"
Grand Boulevard,38,Multifamily,Legends South - Mahalia Place,116 E. 43rd St.,60653,773-285-9500,Interstate Realty Management Co.,110,1178081.875,1876584.156,-87.62226472,41.81666257,"(-87.6222647175, 41.816662565)"
North Lawndale,29,Senior,Roosevelt Towers,3440 W. Roosevelt Road,60624,773-265-6961,"East Lake Management Group, Inc.",104,1153440.124,1894532.775,-87.71218086,41.86643977,"(-87.7121808603, 41.8664397713)"
Logan Square,22,Multifamily,Zapata Apts.,3503 W. Armitage Ave,60647,773-227-6332,Bickerdike Apartments,12,1152897.634,1913030.193,-87.71368201,41.91720928,"(-87.713682006, 41.9172092811)"
West Ridge,2,ARO,"5822 North Western, LLC",5822 N. Western Ave.,60659,773-572-2755,Chicago Apartment Finders,2,1159227.225,1938700.509,-87.68971871,41.98752226,"(-87.6897187055, 41.9875222634)"
Belmont Cragin,19,Senior,Senior Suites of Belmont-Cragin,6045 W. Grand Ave.,60639,773-237-1333,Senior Lifestyle Corp.,86,1135526.174,1914216.383,-87.77747755,41.92079101,"(-87.7774775508, 41.9207910105)"
Douglas,35,ARO,Unity Hall,3138-40 S. Indiana Ave.,60616,312-929-2608,TRB properties,2,1178081.304,1884060.021,-87.62203977,41.83717695,"(-87.6220397684, 41.8371769457)"
Portage Park,15,ARO,4015 Narragansett LLC,4015-23 N. Narragansett Ave.,60634,708-867-3799,Zidan Management Group,2,1133012.825,1926100.104,-87.78643375,41.95344562,"(-87.7864337467, 41.9534456208)"
Hegewisch,55,Senior,Senior Suites of Hegewisch,13550 S. Avenue O,60633,773-646-1333 ,Senior Lifestyle Corp.,116,1201038.059,1815487.733,-87.54012317,41.64845741,"(-87.540123166, 41.6484574114)"
Woodlawn,42,Multifamily,Eddie Mae & Alex Johnson Apts.,6230 S. Dorchester Ave.,60637,773-288-4202,Woodlawn East Community,84,1186573.262,1863816.865,-87.59152085,41.78143113,"(-87.5915208532, 41.7814311307)"
North Lawndale,29,Multifamily,Dicksons Estates Apts.,1129 S. Sacramento Ave.,60612,773-638-0386,Dickson Estates Apartments,48,1156574.009,1894894.51,-87.70066623,41.86736961,"(-87.7006662254, 41.8673696101)"
Woodlawn,42,Senior,Butler Apts.,6146 S. Kenwood Ave.,60637,773-955-9290,Woodlawn Comm. Dev. Corp.,17,1186094.259,1864312.843,-87.59326131,41.78280346,"(-87.5932613147, 41.7828034603)"
Auburn Gresham,71,Senior,Senior Suites of Auburn-Gresham,1050 W. 79th St.,60620,773-723-0333,Senior Lifestyle Corp.,85,1170460.901,1852465.795,-87.65092232,41.75064862,"(-87.6509223206, 41.7506486193)"
Humboldt Park,23,Multifamily,Nelson Mandela Apts.,526 N. Troy St.,60624,773-227-6332,Bickerdike Apts.,6,1155237.959,1903558.991,-87.70533834,41.89117274,"(-87.7053383382, 41.8911727354)"
West Ridge,2,ARO,Joy Plaza Residences,6411 N. Rockwell Ave.,60645,224-534-9361,Devon NJ LLC,3,1157863.159,1942516.737,-87.69463113,41.99802217,"(-87.6946311267, 41.9980221693)"
Humboldt Park,23,Multifamily,Nelson Mandela Apts.,528 N. Troy St.,60624,773-227-6332,Bickerdike Apts.,3,1155237.316,1903580.685,-87.70534012,41.89123228,"(-87.7053401173, 41.8912322799)"
Roseland,49,Multifamily,Roseland Ridge Apts.,10513 S. Michigan Ave.,60628,773-341-3158,NHS Redevelopment Corp.,51,1178893.699,1835198.534,-87.62054468,41.70307738,"(-87.6205446771, 41.7030773785)"
Lower West Side,31,Senior,Casa Maravilla,2021 S. Morgan St.,60608,312-666-1323,The Resurrection Project,5,1170051.208,1890349.587,-87.65132209,41.85461476,"(-87.6513220922, 41.8546147585)"
North Lawndale,29,Multifamily,Park Douglas,1224 S. Washtenaw Ave.,60608,773-893-4800,Interstate Realty Management Co.,31,1158521.517,1894293.849,-87.69353304,41.86568173,"(-87.6935330428, 41.8656817278)"
Grand Boulevard,38,Multifamily,Shops & Lofts at 47,747 E. 47th St.,60653,855-618-4959,The Community Builders Inc.,72,1182241.946,1873977.257,-87.60708556,41.80941355,"(-87.6070855618, 41.8094135532)"
Logan Square,22,Senior,Renaissance West,2517 W. Fullerton Ave.,60647,773-862-2500,Renaissance Realty Group Inc.,41,1159142.563,1915828.561,-87.69066098,41.9247621,"(-87.6906609777, 41.9247620985)"
East Garfield Park,27,Supportive Housing,Deborah's Place III,2822 W. Jackson Blvd.,60612,773-638-6490,Deborah's Place ,90,1157527.975,1898606.336,-87.69706305,41.87753589,"(-87.6970630483, 41.8775358858)"
East Garfield Park,27,Multifamily,Homan Square Apartments Phase VI ,3609 W. Arthington St.,60624,773-722-7320,Realty & Mortgage Co.,52,1152417.178,1895758.869,-87.71590385,41.86982456,"(-87.7159038458, 41.8698245594)"
Grand Boulevard,38,Senior HUD 202,Margaret Ford Manor Independent Living,4500 S. Wabash Ave.,60653,773-924-9171,"HSR Property Services, LLC",63,1177427.156,1875236.623,-87.62470713,41.81297966,"(-87.6247071273, 41.8129796596)"
Austin,25,Multifamily,Rebecca Walker Complex,126 S. Central Ave.,60644,773-261-1550,Affordable Property Management Specialist,40,1139038.208,1898825.974,-87.76494803,41.87849467,"(-87.7649480305, 41.8784946733)"
West Town,24,ARO,1237 N. Milwaukee Ave.Owner LLC,1241 N. Milwaukee Ave.,60622,312-883-7331,CIM Group,6,1165423.812,1908434.931,-87.66779176,41.904342,"(-87.667791761, 41.9043420044)"
West Town,24,Multifamily,North and Talman Family Apts.,2654 W. North Ave.,60647,773-486-7410,Hispanic Housing Dev. Corp.,30,1158184.401,1910570.961,-87.69432564,41.91035449,"(-87.6943256397, 41.9103544922)"
Humboldt Park,23,Senior,North & Pulaski Senior Housing,3939-59 W. North Ave.,60647,773-687-0234,Hispanic Housing Dev. Corp.,72,1149678.042,1910302.339,-87.72558192,41.90978701,"(-87.7255819184, 41.9097870143)"
West Elsdon,62,Multifamily,Park Place Family Apts.,3630 W. 51st St.,60632,773-767-7260,"Leasing and Management Co., Inc.",78,1152916.272,1870602.659,-87.71473662,41.80078286,"(-87.7147366177, 41.8007828624)"
Kenwood,39,Multifamily,Jazz on the Boulevard (scattered sites) ,4657 S. Drexel Blvd,60653,312-660-1300,Heartland Housing,81,1183149.455,1874094.41,-87.60375337,41.80971394,"(-87.6037533683, 41.8097139386)"
Grand Boulevard,38,Multifamily,Legends South - Savoy Square,4448 S. State St.,60609,773-855-2209,Interstate Realty Management Co.,220,1176982.246,1875311.407,-87.6263368,41.81319493,"(-87.6263367998, 41.8131949278)"
North Lawndale,29,Multifamily,Park Douglas,1313-15 S. Fairfiled Ave.,60608,773-893-4800,Interstate Realty Management Co.,4,1158281.777,1893762.463,-87.69442766,41.86422845,"(-87.694427661, 41.8642284474)"
North Lawndale,29,Multifamily,Park Douglas,1218-20 S. Washtenaw Ave.,60608,773-893-4800,Interstate Realty Management Co.,29,1158519.57,1894367.8,-87.69353817,41.8658847,"(-87.6935381673, 41.8658846962)"
Grand Boulevard,38,Multifamily,Paul G. Stewart Phase V,400 E. 41st St.,60653,773-924-2100,Paul G. Stewart Assoc.,20,1179638.248,1877940.683,-87.61651411,41.8203495,"(-87.6165141095, 41.8203495003)"
West Town,24,ARO,Seven 10 West,710 W. Grand Ave.,60654,414-369-3511,Outlook Management,1,1171305.699,1903732.364,-87.64632446,41.89131063,"(-87.6463244631, 41.8913106255)"
Humboldt Park,23,Multifamily,Nelson Mandela Apts.,3108 W. Franklin Blvd.,60624,773-227-6332,Bickerdike Apts.,6,1155507.651,1903207.947,-87.70435734,41.89020402,"(-87.7043573374, 41.890204017)"
Greater Grand Crossing,69,Multifamily,Englewood Gardens,6956 S. Vincennes Ave.,60621,773-994-4830,"East Lake Management Group, Inc.",24,1176891.268,1858664.434,-87.62717205,41.76751603,"(-87.6271720535, 41.7675160252)"
Grand Boulevard,38,Senior,Park Boulevard Tower/Grand Renaissance Apts.,4257 S. King Dr.,60653,773-268-4642,"East Lake Management Group, Inc.",24,1179612.436,1876628.605,-87.61664895,41.81674964,"(-87.6166489475, 41.8167496439)"
North Lawndale,29,Multifamily,Park Douglas,1220 S. Talman Ave.,60608,773-893-4800,Interstate Realty Management Co.,10,1158851.587,1894355.407,-87.69231965,41.86584389,"(-87.6923196475, 41.865843892)"
Grand Boulevard,38,Multifamily,Cornerstone Apts.,633 E. 50th St.,60615,312-577-5555,The Community Builders Inc.,7,1181425.624,1871964.801,-87.61014176,41.8039101,"(-87.6101417643, 41.8039101011)"
West Town,24,Supportive Housing,Wicker Park Renaissance,1527-31 N. Wicker Park Ave.,60622,773-278-8602,"RRG Development, Inc.",102,1162934.319,1910028.946,-87.67689152,41.90876874,"(-87.6768915182, 41.9087687359)"
North Lawndale,29,Multifamily,Park Douglas,2707 W. 12th St.,60808,773-893-4800,Interstate Realty Management Co.,5,1158459.37,1894563.613,-87.69375381,41.86642326,"(-87.6937538097, 41.8664232575)"
Douglas ,35,Multifamily,Park Boulevard IIB,10 W. 37th St.,60609,773-548-8792,"Urban Property Advisors, LLC",12,1176772.49,1880503.014,-87.62694964,41.82744587,"(-87.6269496359, 41.8274458746)"
Oakland,36,Multifamily,Lakefront Phase II,1137 E. Bowen Ave.,60653,773-548-8795,"Urban Property Advisors, LLC",3,1184548.967,1877442.503,-87.59851524,41.81886863,"(-87.5985152379, 41.8188686278)"
North Lawndale,29,Multifamily,Park Douglas,1262-1300 S. Washtenaw Ave.,60608,773-893-4800,Interstate Realty Management Co.,7,1158531.931,1893930.095,-87.69350477,41.86468333,"(-87.6935047653, 41.8646833345)"
Grand Boulevard,38,Multifamily,Progressive Square,4752 S. Wabash Ave.,60614,773-975-7234,CMHDC/Progressive NFP/Kass Management,107,1177483.246,1873312.722,-87.62455959,41.80769903,"(-87.6245595889, 41.8076990345)"
Douglas,35,Multifamily,South Park Plaza,2600 S. King Dr.,60616,312-674-9210,Woodlawn Comm. Dev. Corp.,134,1179206.472,1887158.196,-87.61781639,41.84565291,"(-87.617816391, 41.8456529118)"
Rogers Park,1,Supportive Housing,Wayne Street Apts.,6808 N. Wayne Ave.,60626,773-572-5272,The Thresholds,297,1165865.348,1945401.689,-87.66511109,42.00577097,"(-87.6651110904, 42.0057709728)"
Roseland,49,Supportive Housing,Holland Apartments,240 W. 107th Place,60628,773-568-3031,Mercy Housing,40,1176448.512,1833690.986,-87.62954345,41.69899564,"(-87.6295434504, 41.698995638)"
South Deering,51,Senior,Porta Coeli Residence,2260 E. 99th St.,60617,773-374-2470,Catholic Charities,86,1193007.252,1839809.525,-87.56871495,41.71539824,"(-87.5687149518, 41.7153982408)"
Lower West Side,31,Multifamily,Casa Guanajuato,1313 W. 19th St.,60608,312-666-1323,The Resurrection Project,6,1167849.048,1890829.499,-87.65939108,41.85597939,"(-87.6593910822, 41.8559793927)"
East Garfield Park,27,Senior,Heritage Woods of Chicago,2800 W. Fulton St.,60612,773-722-2900,BMA Management Ltd.,113,1157640.848,1901927.155,-87.69655814,41.88664623,"(-87.696558136, 41.8866462303)"
Woodlawn,42,Multifamily,65th Street Apts.,6522 S. Ingleside Ave.,60637,773-684-2056,"Urban Property Advisors, LLC",18,1183642.029,1861850.344,-87.60232857,41.77610371,"(-87.6023285746, 41.7761037074)"
Oakland,36,Multifamily,Lakefront Phase II,1140 E. 42nd Pl,60653,773-548-8795,"Urban Property Advisors, LLC",6,1184665.38,1877176.162,-87.59809656,41.81813504,"(-87.598096559, 41.8181350367)"
Austin,25,Senior,Senior Suites of Austin,335 N. Menard Ave.,60644,773-378-0333,Senior Lifestyle Corp.,84,1137686.377,1901819.131,-87.76983958,41.88673275,"(-87.7698395847, 41.8867327472)"
Near West Side,28,Multifamily,Westhaven Park Phase IIB,110 N. Wood St.,60612,312-491-1114,Interstate Realty Management Co.,176,1164349.325,1900851.12,-87.67195337,41.88355426,"(-87.6719533672, 41.8835542602)"
Washington Park,40,Multifamily,St. Edmund's Oasis,300-10 E. 61st St.,60637,773-493-2411,St. Edmund's Redevelopment Corp.,12,1179107.395,1864667.296,-87.61886624,41.78393828,"(-87.6188662443, 41.7839382764)"
Humboldt Park,23,Multifamily,Nelson Mandela Apts.,505 N. Troy St.,60612,773-227-6332,Bickerdike Apts.,6,1155324.884,1903322.64,-87.70502546,41.89052242,"(-87.7050254597, 41.8905224214)"
Near North Side,8,ARO,Xavier Chicago,625 W. Division St.,60622,312-642-2279,Greystar Property Management,24,1171812.25,1908210.388,-87.64433208,41.90358744,"(-87.6443320836, 41.9035874398)"
Near North Side,8,Multifamily,North Town Village II,1311 N. Halsted St.,60642,312-944-9488,Holsten Real Estate Dev. Corp.,112,1170813.062,1908876.862,-87.64798274,41.90543825,"(-87.6479827434, 41.9054382467)"
Oakland,36,Multifamily,Lakefront Phase II,4131 S. Lake Park Ave.,60653,773-548-8795,"Urban Property Advisors, LLC",6,1184098.384,1877540.909,-87.60016504,41.81914922,"(-87.6001650373, 41.8191492211)"
North Lawndale,29,Multifamily,Dr. King Apts.,1550 S. Hamlin Ave.,60623,773-776-7233,Lawndale Christian Residential Svcs.,45,1151263.623,1891891.93,-87.7202403,41.85923592,"(-87.720240298, 41.8592359223)"
Lower West Side,31,Multifamily,Casa Colima,1427 W. Cullerton St.,60608,312-666-1323,The Resurrection Project,3,1167051.022,1890476.213,-87.66233036,41.8550271,"(-87.6623303609, 41.8550270973)"
Grand Boulevard,38,Multifamily,Hearts United I-The Langston (scattered sites),722-46 E. Bowen Ave.,60653,773-924-2100,Bonheur Realty Services Corp.,116,1181829.598,1877677.36,-87.60848349,41.81957647,"(-87.6084834879, 41.8195764741)"
Humboldt Park,23,Multifamily,Nelson Mandela Apts.,3145 W. Franklin Blvd.,60624,773-227-6332,Bickerdike Apts.,6,1155134.693,1903119.26,-87.7057294,41.88996815,"(-87.7057293959, 41.8899681469)"
South lawndale,30,Multifamily,Casa Tabasco ,3515-17 W. 23rd St.,60623,312-248-8355,The Resurrection Project,8,1153205.149,1888451.562,-87.71320473,41.84975688,"(-87.713204726, 41.849756884)"
Auburn Gresham,71,Multifamily,Stone Terrace,8440 S. Parnell Ave.,60620,773-651-9234,East Lake Management & Development Corp.,56,1174067.016,1848682.074,-87.63781991,41.74018636,"(-87.6378199128, 41.740186358)"
Logan Square,22,Multifamily,Zapata Apts.,3230 W. Armitage Ave,60647,773-227-6332,Bickerdike Apartments,100,1154370.985,1913144.88,-87.70826581,41.91749465,"(-87.7082658078, 41.9174946519)"
Uptown,3,Multifamily,Sunnyside Kenmore Apts.,4130 N. Kenmore Ave.,60640,773-769-3116,"Metroplex, Inc.",13,1168380.03,1927860.194,-87.65636944,41.95758244,"(-87.6563694357, 41.9575824413)"
North Lawndale,29,Multifamily,Park Douglas,2639 W. 12th Pl,60608,773-893-4800,Interstate Realty Management Co.,5,1158801.298,1894249.272,-87.69250717,41.86555368,"(-87.6925071703, 41.8655536764)"
West Ridge,2,Senior,G & A Senior Residences at Ravenswood,1818 W. Peterson Ave.,60660,773-381-7400,Eastgate Village Senior Corp.,89,1162949.472,1939941.189,-87.67599309,41.99084916,"(-87.6759930884, 41.9908491577)"
Edgewater,77,Senior,Hollywood House Apts.,5700 N. Sheridan Road,60660,773-728-2600,Heartland Housing,93,1168565.916,1938087.01,-87.65538854,41.9856411,"(-87.6553885441, 41.9856410954)"
Douglas,35,Multifamily,Park Boulevard IIA,3640 S. State St.,60609,773-548-8792,"Urban Property Advisors, LLC",80,1176856.611,1880678.422,-87.62663572,41.82792531,"(-87.6266357171, 41.8279253109)"
Norwood Park,10,Senior,Senior Suites of Norwood Park,5700 N. Harlem Ave.,60631,888-339-2315,Senior Lifestyle ,84,1127328.815,1937441.873,-87.80707301,41.98466628,"(-87.8070730079, 41.9846662832)"
Humboldt Park,23,Multifamily,Nelson Mandela Apts.,3114 W. Franklin Blvd.,60624,773-227-6332,Bickerdike Apts.,6,1155445.176,1903206.5,-87.70458681,41.8902013,"(-87.7045868112, 41.8902013035)"
Humboldt Park,23,Multifamily,Nelson Mandela Apts.,607 N. Sawyer Ave.,60624,773-227-6332,Bickerdike Apts.,6,1154639.548,1903911.993,-87.70752657,41.89215341,"(-87.7075265659, 41.8921534052)"
Washington Park,40,Multifamily,St. Edmund's Oasis,6143-51 S. Indiana Ave.,60637,773-493-2411,St. Edmund's Redevelopment Corp.,14,1178697.322,1864156.91,-87.62038523,41.78254707,"(-87.6203852293, 41.782547068)"
Englewood,68,Senior,Yale Building,6565 S. Yale Ave.,60621,773-224-7669,Yale Building LLP,140,1175681.092,1861260.691,-87.6315302,41.77466762,"(-87.6315301982, 41.7746676247)"
Avondale,21,Supportive Housing,Milwaukee Ave. Apts.,3060 N. Milwaukee Ave.,60618,312-967-3700,Full Circle Management,32,1151100.782,1920108.203,-87.72009772,41.93666739,"(-87.7200977199, 41.9366673862)"
West Garfield Park,26,Senior,Fannie Emanuel Apts.,3916 W. Washington Blvd.,60624,312-913-5812,McCormack Baron Management Inc.,181,1150182.64,1900168.643,-87.72399261,41.88196929,"(-87.7239926128, 41.8819692864)"
West Garfield Park,26,Supportive Housing,The Rebecca Johnson Apts.,2822 W. Jackson Blvd.,60612,773-638-6393,Deborah's Place Ltd.,52,1157527.975,1898606.336,-87.69706305,41.87753589,"(-87.6970630483, 41.8775358858)"
Lower West Side,31,Multifamily,Casa Guerrero,963 W Cullerton St.,60608,312-666-1323,The Resurrection Project,52,1170238.806,1890555.169,-87.65062753,41.8551748,"(-87.6506275348, 41.8551748018)"
West Town,24,Multifamily,La Estancia,2753 W. Division St.,60622,773-227-6332,Bickerdike Redevelopment Corp.,59,1157605.979,1907820.481,-87.69652556,41.90281875,"(-87.6965255554, 41.902818751)"
Uptown,3,Supportive Housing,Major Jenkins Apts.,5012 N. Winthrop Ave.,60640,773-506-3486,Mercy Housing,96,1167919.615,1933730.438,-87.65789194,41.97370056,"(-87.6578919355, 41.9737005572)"
Uptown,3,Multifamily,Uptown Preservation Apts.,900 W. Windsor Ave.,60640,773-286-5400,Leasing & Management Co. Inc.,160,1169410.724,1930422.942,-87.65250544,41.9645923,"(-87.6525054366, 41.9645923009)"
South Shore,43,Multifamily,Jeffrey Towers Apts.,7020 S. Jeffrey Blvd.,60649,872-777-4924,Interfaith Housing Corp.,136,1190721.263,1858722.629,-87.57647796,41.76735295,"(-87.5764779584, 41.7673529546)"
Grand Boulevard,38,Multifamily,Bronzeville Family Apts.,400 E. 41st St.,60653,773-924-2100,Peoples Co-Op Management Service,60,1179638.248,1877940.683,-87.61651411,41.8203495,"(-87.6165141095, 41.8203495003)"
Dunning,17,Senior,Autumn Green at Wright Campus,4239 N. Oak Park Ave.,60634,773-202-3388,Senior Lifestyle Corp.,129,1129981.018,1927628.484,-87.79754403,41.95769221,"(-87.7975440334, 41.9576922115)"
Humboldt Park,23,Multifamily,Rosa Parks Apts.,532 N. Trumbull Ave.,60624,773-227-6332,Bickerdike Apts.,15,1153240.184,1903567.266,-87.71267502,41.89123533,"(-87.7126750163, 41.8912353311)"
Ashburn ,70,Senior,Wrightwood Senior Apts.,2815 W. 79th St.,60652,773-471-7777,Ludwig and Company,85,1158906.934,1852040.954,-87.69327334,41.74972646,"(-87.6932733372, 41.7497264566)"
Roseland,49,Supportive Housing,Wentworth Commons,11045 S. Wentworth Ave.,60628,773-568-7804,Mercy Housing Lakefront,50,1176951.402,1831516.016,-87.62776735,41.69301591,"(-87.6277673462, 41.6930159121)"
West Pullman ,53,Supportive Housing,Hancock House,12045 S. Emerald Ave.,60628,773-568-3000,Source Works Development,90,1173523.536,1824810.063,-87.64051484,41.67469008,"(-87.6405148423, 41.6746900779)"
Woodlawn,42,Multifamily,Dorchester Apts.,1410 E. 62nd St.,60637,773-572-5500,The Thresholds,67,1186722.404,1864209.572,-87.59096164,41.78250522,"(-87.5909616433, 41.7825052194)"
Lower West Side,31,ARO,Woodwork Lofts,1414-48 W. 21st St.,60608,312-576-7392,Stellar Performance Inc.,10,1167176.941,1890229.839,-87.66187526,41.85434832,"(-87.6618752556, 41.8543483216)"
East Garfield Park,27,Multifamily/Artists,Switching Station Lofts ,15 S. Homan Ave.,60624,312-859-0577,Holsten Management Corp.,24,1153767.678,1899627.529,-87.71084273,41.88041381,"(-87.7108427298, 41.8804138115)"
Douglas,35,Multifamily,Park Boulevard IIB,3700 S. Dearborn St.,60609,773-548-8792,"Urban Property Advisors, LLC",72,1176529.6,1880409.309,-87.62784358,41.82719422,"(-87.6278435793, 41.8271942191)"
Washington Park,40,Multifamily,St. Edmund's Manor,5947 S. Indiana Ave.,60653,773-548-8924,St. Edmund's Manor Ltd.,24,1178662.056,1865432.916,-87.62047574,41.78604936,"(-87.6204757369, 41.7860493567)"
Gage Park,63,Senior,Senior Suites of Gage Park,3244 W. 59th St.,60629,773-434-4333,Senior Lifestyle Corp.,59,1155572.425,1865354.407,-87.70513618,41.78632805,"(-87.705136175, 41.786328045)"
North Center,5,Senior,North Center Senior Apts.,2324 W. Irving Park Road,60618,773-478-8900,"Metroplex, Inc.",60,1160064.901,1926543.181,-87.68697505,41.95414467,"(-87.6869750499, 41.9541446663)"
Chatham,44,Senior,Senior Suites of Chatham,8300 S. Cottage Grove Ave.,60619,773-488-1333,Senior Lifestyle Corp.,90,1182964.716,1850099.444,-87.60517616,41.74387382,"(-87.6051761606, 41.743873821)"
Near West Side,28,Multifamily,Newberry Park Apts.,1355 S. Blue Island Ave.,60608,312-563-0099,AIMCO,124,1168817.278,1893757.841,-87.65575239,41.8639941,"(-87.6557523872, 41.8639940988)"
Douglas,35,Multifamily,Park Boulevard IB,3506 S. State St.,60609,773-548-8792,"Urban Property Advisors, LLC",54,1176805.951,1881719.108,-87.62679018,41.83078218,"(-87.6267901762, 41.8307821806)"
Oakland,36,Multifamily,Lakefront Phase II,1060 E. 41st St.,60653,773-548-8795,"Urban Property Advisors, LLC",81,1184020.764,1877980.711,-87.60043601,41.82035789,"(-87.6004360121, 41.820357887)"
New City,61,Multifamily,Senior Suites of New City,4845 S. Western Blvd.,60609,773-523-9333,Senior Lifestyle Corp.,115,1161385.374,1872314.959,-87.68362994,41.80531018,"(-87.6836299382, 41.8053101773)"
Humboldt Park,23,Multifamily,Nelson Mandela Apts.,3500 W. Ohio St.,60624,773-227-6332,Bickerdike Apts.,6,1152924.343,1903817.949,-87.71382831,41.89192949,"(-87.7138283059, 41.8919294934)"
North Lawndale,29,Multifamily,Dicksons Estates Apts.,1129 S. Sacramento Ave.,60612,773-638-0386,Dickson Estates Apartments,42,1156574.009,1894894.51,-87.70066623,41.86736961,"(-87.7006662254, 41.8673696101)"
Near South Side,33,Multifamily,Hilliard Homes Phase I,2030 S. State St.,60616,312-225-7610,Holsten Real Estate Dev. Corp.,170,1176604.642,1890373.503,-87.62726774,41.85453503,"(-87.6272677388, 41.854535033)"
South Shore,43,Senior,Senior Suites of Rainbow Beach,2804 E. 77th Place,60649,773-374-5333,Senior Lifestyle Corp.,87,1196631.912,1854159.484,-87.55496472,41.7546866,"(-87.5549647165, 41.7546866025)"
New City,61,Multifamily,Casa Hidalgo,4600 S. Wood St.,60609,312-248-8355,The Resurrection Project,10,1165081.4,1874156.261,-87.67002227,41.81028546,"(-87.6700222697, 41.8102854563)"
Near North Side,8,Supportive,Carling Hotel,1512 N. LaSalle St.,60610,312-421-1170,Interstate Realty Management Co.,80,1174812.446,1910422.213,-87.63324548,41.90959014,"(-87.6332454838, 41.9095901427)"
South Lawndale,30,Multifamily,Resurrection Homes,2243 S. Central Park Ave.,60623,312-248-8355,The Resurrection Project,2,1152765.059,1888679.589,-87.7148139,41.85039133,"(-87.714813899, 41.8503913261)"
Hyde Park,41,ARO,City Hyde Park,5105 S. Harper Ave.,60615,773-548-5077,Mac Properties,36,1187193.908,1871412.921,-87.58900435,41.80226057,"(-87.5890043476, 41.8022605699)"
Near South Side,33,Supportive Housing,The Studios,1801 S. Wabash St.,60616,312-326-5200,East Lake Management Co.,96,1177086.698,1891564.72,-87.62546237,41.85779292,"(-87.6254623688, 41.857792921)"
Lower West Side,31,Multifamily,Casa San Luis,1646-50 S. Throop St.,60608,312-666-1323,The Resurrection Project,12,1167939.641,1891689.48,-87.65903377,41.8583373,"(-87.6590337725, 41.8583373045)"
North Lawndale,29,Multifamily,Lazarus Apartments,1859 S. Pulaski Ave.,60623,773-762-3389,Lawndale Christian Residential Svcs.,26,1150056.063,1890463.503,-87.72471008,41.85533972,"(-87.7247100763, 41.8553397217)"
Englewood,68,Multifamily,Antioch Homes II,301 W. Marquette Road,60621,773-994-4546,"Universal Management Service, Inc.",69,1175444.813,1860492.084,-87.63241932,41.77256377,"(-87.6324193182, 41.7725637689)"
South Chicago,46,Multifamily,Casa Kirk,3200 E. 92nd St.,60617,773-734-2884,Interfaith Housing Corp.,112,1198941.103,1844604.277,-87.54682246,41.72840878,"(-87.546822457, 41.7284087757)"
Chicago Lawn,66,Senior,Senior Suites of Marquette Village,7430 S. Rockwell St.,60629,773-432-8420,Senior Lifestyle Corp.,93,1160293.922,1855122.446,-87.68810611,41.75815411,"(-87.6881061075, 41.7581541131)"
North Lawndale,29,Multifamily,Park Douglas,2652 W. 12th Pl,60608,773-893-4800,Interstate Realty Management Co.,4,1158622.398,1894325.458,-87.69316184,41.8657664,"(-87.6931618352, 41.8657664016)"
East Garfiled Park,27,Multifamily,Harvest Homes,3512-46 W. Fifth Ave.,60624,312-216-5103,Realty & Mortgage Co.,36,1153024.162,1898153.842,-87.71361194,41.87638462,"(-87.7136119356, 41.8763846236)"
West Englewood,67,Multifamily,Clara's Village,2115 W. 63rd St,60636,773-434-4929,Interfaith Housing Corp.,13,1163257.203,1862800.707,-87.6770312,41.77916282,"(-87.6770311971, 41.7791628235)"
Lower West Side,31,Multifamily,Resurrection Homes,2124 W. 19th St.,60608,312-666-1323,The Resurrection Project,5,1162389.313,1890761.089,-87.67943292,41.85590751,"(-87.6794329233, 41.8559075141)"
Near South Side,33,Senior,G&A Senior Residences at Eastgate Village,300 E. 26th Street,60616,773-381-7400,Eastgate Village Partners LP,127,1178501.162,1887204.44,-87.62040337,41.8457959,"(-87.6204033747, 41.8457959044)"
Logan Square,22,ARO,2211 N. Milwaukee Ave.,2201-31 N. Milwaukee Ave.,60647,773-327-4975,33 Management LLC,12,1158283.98,1914416.08,-87.6938545,41.92090376,"(-87.6938544995, 41.9209037608)"
North Lawndale,29,Multifamily,Park Douglas,1317-19 S. Fairfield Ave.,60608,773-893-4800,Interstate Realty Management Co.,29,1158282.873,1893724.634,-87.69442467,41.86412462,"(-87.6944246698, 41.8641246191)"
South Shore,43,Senior,Senior Suites of South Shore,2355 E. 67th St.,60649,773-324-2333,Senior Lifestyle Corp.,55,1193073.323,1860960.163,-87.56778382,41.77343579,"(-87.567783821, 41.7734357917)"
Montclare,18,ARO,2931-57 N. Harlem LLC,2931-57 N. Harlem Ave.,60707,708-867-3799,Zitella Development ,5,1127615.033,1918797.886,-87.80644193,41.93350027,"(-87.8064419298, 41.9335002731)"
Albany Park,14,Senior,Senior Suites of Ravenswood Manor,2800 W. Montrose Ave.,60618,773-509-9333,Senior Lifestyle Corp.,80,1156898.514,1929148.461,-87.69854417,41.96135865,"(-87.6985441744, 41.9613586525)"
Grand Boulevard,38,Multifamily,Cornerstone Apts.,611 E. 50th St.,60615,312-577-5555,The Community Builders Inc.,8,1181237.493,1871959.196,-87.6108319,41.80389906,"(-87.6108319018, 41.8038990623)"
North Lawndale,29,Multifamily,Park Douglas,1255 S. Fairfield Ave.,60608,773-893-4800,Interstate Realty Management Co.,5,1158274.683,1894003.779,-87.69444711,41.86489079,"(-87.69444711, 41.8648907888)"
Montclare,18,ARO,Harlem & Wrightwood,2601-19 N. Harlem Ave.,60707,312-671-0777,NOAH Properties,2,1127689.873,1916489.615,-87.80621904,41.92716483,"(-87.8062190443, 41.9271648255)"
Oakland,36,Multifamily,Lakefront Phase II,1120 E. Bowen Ave.,60653,773-548-8795,"Urban Property Advisors, LLC",6,1184352.47,1877438.04,-87.59923619,41.81886099,"(-87.5992361922, 41.8188609893)"
Woodlawn,42,Multifamily,Strand Hotel,6321 S. Cottage Grove Ave.,60637,312-274-9169,Holsten Real Estate Dev. Corp.,63,1182692.163,1863173.729,-87.60576963,41.7797573,"(-87.6057696255, 41.7797573036)"
Logan Square,22,Multifamily,Rev. Daniel Alvarez Apts.,2451-57 N. Sacramento Ave.,60612,773-772-4063,Hispanic Housing Dev. Corp.,96,1155995.815,1916357.844,-87.70220924,41.92627863,"(-87.7022092387, 41.926278629)"
North Lawndale,29,Multifamily,Park Douglas,2642-44 W. 12 th Pl,60608,773-893-4800,Interstate Realty Management Co.,17,1158736.897,1894328.04,-87.69274143,41.86577114,"(-87.6927414311, 41.8657711435)"
Grand Boulevard,38,Senior,Bronzeville Senior Apts.,460 E. 41st St.,60653,773-924-2100,Peoples Co-Op Management Service,97,1180219.199,1877957.214,-87.61438244,41.82038154,"(-87.6143824354, 41.8203815435)"
Lower West Side,31,Multifamily,Casa Queretaro,2012 W. 17th St.,60608,312-666-1323,The Resurrection Project,45,1163154.261,1891768.78,-87.67659689,41.8586567,"(-87.6765968934, 41.8586566959)"
Humboldt Park,23,Multifamily,Spaulding Apartments,1750 N. Spaulding Ave.,60647,773-381-7400,G&A Management,111,1153823.719,1911621.628,-87.71031714,41.91332565,"(-87.7103171384, 41.9133256466)"
Humboldt Park,23,Multifamily,Madres Unidas (scattered sites),3541 W. North Ave.,60647,773-276-5338 ext. 225,LUCHA,80,1152271.525,1910359.241,-87.71605298,41.90989234,"(-87.7160529794, 41.9098923382)"
Oakland,36,Multifamily,Lakefront Phase II,1113 E. Bowen Ave.,60653,773-548-8795,"Urban Property Advisors, LLC",6,1184313.13,1877335.236,-87.59938372,41.81857981,"(-87.5993837219, 41.8185798091)"
Auburn Gresham,71,Senior HUD 202,Naomi & Sylvester Smith Senior Living Ctr.,8019-55 S. Halsted St.,60620,773-651-6400,"HSR Property Services, LLC",59,1172404.466,1851597.134,-87.6438257,41.74822238,"(-87.6438256988, 41.7482223777)"
North Lawndale,29,Multifamily,Park Douglas,1302-06 S. Washtenaw Ave.,60608,773-893-4800,Interstate Realty Management Co.,5,1158533.507,1893871.34,-87.69350059,41.86452207,"(-87.6935005875, 41.8645220745)"
Near South Side,33,Multifamily,Hilliard Homes Phase II,2031 S. Clark St.,60616,312-326-1455,Holsten Management Corp.,176,1175862.866,1890322.361,-87.62999188,41.8544114,"(-87.6299918764, 41.8544114001)"
West Town,24,Supportive/Veterans,65th Infantry Boringueneers Apts.,1045 N. Sacramento Blvd.,60622,773-772-4801,Hispanic Housing Dev. Corp.,48,1156229.026,1906960.648,-87.70160663,41.90048723,"(-87.7016066315, 41.9004872305)"
South Shore,43,Multifamily,Highlands Tudor Manor,7018 S. Cregier Ave.,60649,773-667-1940,Related Management Co. LP,18,1189376.954,1858721.452,-87.58140538,41.76738208,"(-87.5814053802, 41.7673820796)"
Humboldt Park,23,Multifamily,Rosa Parks Apts.,649 N. Sawyer Ave.,60624,773-227-6332,Bickerdike Apts.,6,1154625.793,1904362.102,-87.70756503,41.89338882,"(-87.707565028, 41.8933888222)"
Hyde Park,41,ARO,5432-44 S. Woodlawn,5432 S. Woodlawn Ave.,60615,312-480-0933,Chicago Apartment Finders,10,1185102.561,1869464.413,-87.59673531,41.79696316,"(-87.5967353133, 41.7969631559)"
Logan Square,22,ARO,2501 Armitage,2501 W. Armitage Ave.,60647,312-255-1153,Tandem Property Management,8,1159374.119,1913163.369,-87.68988362,41.91744385,"(-87.689883619, 41.9174438523)"
Woodlawn ,42,Senior,The Burnham at Woodlawn Park,6134 S. Cottage Grove Ave.,60637,773-955-8668,Preservation Housing Management LLC,65,1182583.342,1864354.944,-87.60613195,41.78300119,"(-87.6061319507, 41.7830011908)"
Pullman,50,Senior,Pullman Suites,15 E. 112th Place,60628,773-840-3993,Triangle & Assoc.,60,1178428.442,1830343.03,-87.62239508,41.68976374,"(-87.6223950849, 41.6897637422)"
West Ridge,2,Senior,Lincoln Village Senior Apts.,6057 N. Lincoln Ave.,60659,773-338-5900,Perlmark Realty Management,99,1153825.547,1940243.379,-87.70954508,41.99186565,"(-87.7095450826, 41.9918656495)"
Uptown,3,Senior,Ruth Shriman House,4040 N. Sheridan Road,60613,773-665-2210,Interfaith Housing Corp.,231,1168832.75,1927172.303,-87.65472513,41.95568502,"(-87.6547251281, 41.9556850173)"
Auburn Gresham,71,Senior HUD 202,St. Sabina Elder Village Apts.,1222 W. 79th St.,60620,773-994-7850,Catholic Charities Housing Devp.,80,1169422.93,1852437.468,-87.65472675,41.75059341,"(-87.6547267546, 41.7505934139)"
Washington Park,40,Senior,St. Edmund's Tower Annex,6151 S. Michigan Ave.,60637,773-493-2411,St. Edmund's Redevelopment Corp.,34,1178260.931,1864074.92,-87.62198764,41.782332,"(-87.6219876398, 41.7823319979)"
Englewood,68,People with Disabilities,Victoria Jennings Residences,624 W. 61st St.,60621,773-994-3690,"HSR Property Services, LLC",57,1173046.575,1864479.47,-87.6410929,41.78355891,"(-87.6410928975, 41.7835589092)"
Near North Side,8,Multifamily,Parkside-I Rental,545 W. Division St.,60610,312-944-8500,Holsten Management Corp.,116,1172154.289,1908220.998,-87.6430754,41.90360901,"(-87.6430753954, 41.9036090085)"
Oakland,36,Multifamily,Lakefront Phase II,4130 S. Oakenwald Ave.,60653,773-548-8795,"Urban Property Advisors, LLC",6,1184448.129,1877628.139,-87.59887932,41.81938039,"(-87.5988793227, 41.8193803898)"
North Lawndale,29,Multifamily,Renaissance Place Apts.,3128 W. Douglas Blvd.,60623,773-762-3389,Lawndale Christian Residential Svcs.,11,1155600.26,1893326.92,-87.70428319,41.86308761,"(-87.7042831894, 41.8630876114)"
Englewood,68,Supportive Housing,Branch of Hope Apts.,5628-30 S. Halsted St.,60621,773-488-7205,Evergreen Real Estate LLC,99,1171893.839,1867410.662,-87.64523321,41.79162782,"(-87.6452332087, 41.7916278176)"
Near West Side,28,Multifamily,Westhaven Park Phase IIC ,1939 W. Lake St.,60612,312-455-0009,Interstate Realty Management Co.,42,1163284.257,1901334.737,-87.67585077,41.8849038,"(-87.6758507682, 41.8849038015)"
Humboldt Park,23,Multifamily,Nelson Mandela Apts.,3554 W. Ohio St.,60624,773-227-6332,Bickerdike Apts.,6,1152342.728,1903805.745,-87.71596466,41.89190751,"(-87.7159646599, 41.8919075104)"
Near South Side,33,Senior,Hilliard Homes Phase I,30 W. Cermak Road,60616,312-326-1455,Holsten Real Estate Dev. Corp.,151,1176346.441,1889816.861,-87.62823221,41.85301339,"(-87.628232211, 41.8530133902)"
