Project ID	Project Name	Project Address	Total Units	Affordable Units	Affordable Beds	Project Sponsor	City Analysis Neighborhood	Supervisor District	Project Location	Latitude	Longitude
1969-001	Martin Luther King-Marcus Garvey Square Cooperative Apartments	"1680 Eddy St, San Francisco, CA 94115"	211	211	0	"Martin Luther King-Marcus Garvey Square Cooperative Apartments, INC."	Western Addition	5	"(37.7815971, -122.4348602)"	37.7815971	 -122.4348602
1970-001	Ridgeview Terrace Apartments	"140 Cashmere St, San Francisco, CA 94124"	101	100	0	"Ridgeview Terrace Affordable Housing, Inc."	Bayview Hunters Point	10	"(37.7367058, -122.3846893)"	37.7367058	 -122.3846893
1972-001	Sutter Apartments	"1480 Sutter St, San Francisco, CA 94109"	67	67	0	"Sutter Gough, LP"	Western Addition	2	"(37.7874298, -122.4247513)"	37.7874298	 -122.4247513
1973-001	Nihonmachi Terrace	"1615 Sutter St, San Francisco, CA 94109"	245	243	0	Japanese American Religious Federation	Japantown	5	"(37.7865524, -122.426796)"	37.7865524	 -122.426796)
1980-001	Consorcia Apartments	"1204 Mason St, San Francisco, CA 94133"	24	23	0	Chinatown Community Development Center	Chinatown	3	"(37.7947578, -122.4112015)"	37.7947578	 -122.4112015
1980-002	The Nathan Building	"340 Eddy St, San Francisco, CA 94102"	82	66	0	Indochinese Housing Development Corporation	Tenderloin	6	"(37.7841148, -122.4134521)"	37.7841148	 -122.4134521
1980-003	3434 18th	"3434 18th St, San Francisco, CA 94110"	8	5	0	Mission Housing Development Corporation	Mission	9	"(37.7619858, -122.4202652)"	37.7619858	 -122.4202652
1980-004	Lassen Apartments	"441 Ellis St, San Francisco, CA 94102"	81	80	0	"Asian, Inc. / Bayside Communities"	Tenderloin	6	"(37.7844963, -122.4134521)"	37.7844963	 -122.4134521
1980-005	Mariposa Gardens	"2445 Mariposa St, San Francisco, CA 94110"	63	62	0	Mission Housing Development Corporation	Mission	10	"(37.7627258, -122.4077835)"	37.7627258	 -122.4077835
1980-006	Clayton Hotel	"657 Clay St, San Francisco, CA 94111"	82	81	0	Chinatown Community Development Center	Chinatown	3	"(37.7943077, -122.4040375)"	37.7943077	 -122.4040375
1980-007	Tennessee Street Housing Corporation	"712 Tennessee St, San Francisco, CA 94107"	6	6	0	Tennessee Street Housing Corporation	Potrero Hill	10	"(37.7627106, -122.3900146)"	37.7627106	 -122.3900146
1980-008	Capp Street Apartments	"890 Capp St, San Francisco, CA 94110"	4	4	0	Mission Housing Development Corporation	Mission	9	"(37.7524529, -122.4175644)"	37.7524529	 -122.4175644
1980-009	Bryant Street Apartments	"2800 Bryant St, San Francisco, CA 94110"	7	7	0	Mission Housing Development Corporation	Mission	9	"(37.7493477, -122.408989)"	37.7493477	 -122.408989)
1981-001	Parkview Hotel	"102 South Park St, San Francisco, CA 94107"	40	40	0	Mission Housing Development Corporation	Financial District/South Beach	6	"(37.7817612, -122.3943405)"	37.7817612	 -122.3943405
1981-002	Madrid Hotel	"22 South Park Park, San Francisco, CA 94107"	44	44	0	Mission Housing Development Corporation	Financial District/South Beach	6	"(37.7822952, -122.3936462)"	37.7822952	 -122.3936462
1981-003	Aarti Hotel	"391 Leavenworth St, San Francisco, CA 94109"	40	40	0	Tenderloin Neighborhood Development Corporation	Tenderloin	6	"(37.7844658, -122.4146042)"	37.7844658	 -122.4146042
1981-004	70 Moss	"70 Moss St, San Francisco, CA 94103"	5	3	0	Mission Housing Development Corporation	South of Market	6	"(37.7774658, -122.4079514)"	37.7774658	 -122.4079514
1982-001	Tower Hotel	"1525 Grant Ave, San Francisco, CA 94133"	33	17	0	Chinatown Community Development Center	North Beach	3	"(37.8010216, -122.4078903)"	37.8010216	 -122.4078903
1982-002	All Hallows Community	"1711 Oakdale Ave, San Francisco, CA 94124"	45	44	0	Mercy Housing California	Bayview Hunters Point	10	"(37.7356186, -122.3927078)"	37.7356186	 -122.3927078
1982-003	Woolf House III	"240 4th St, San Francisco, CA 94103"	30	29	0	TODCO Group	South of Market	6	"(37.7825546, -122.4021912)"	37.7825546	 -122.4021912
1982-004	2945 16th	"2945 16th St, San Francisco, CA 94110"	8	5	0	Mission Housing Development Corporation	Mission	9	"(37.7648964, -122.4184875)"	37.7648964	 -122.4184875
1982-005	Casa Quezada	"35 Woodward St, San Francisco, CA 94103"	52	52	0	Dolores Street Community Services	Mission	9	"(37.7693405, -122.4206924)"	37.7693405	 -122.4206924
1982-006	Dunleavy Plaza	"36 Hoff St, San Francisco, CA 94110"	49	25	0	Mission Housing Development Corporation	Mission	9	"(37.7643661, -122.4207077)"	37.7643661	 -122.4207077
1982-007	Sierra Madre	"421 Leavenworth St, San Francisco, CA 94109"	47	46	0	Tenderloin Neighborhood Development Corporation	Tenderloin	6	"(37.7849922, -122.4147568)"	37.7849922	 -122.4147568
1982-008	Yosemite Apartments	"480 Eddy St, San Francisco, CA 94109"	32	20	0	Tenderloin Neighborhood Development Corporation	Tenderloin	6	"(37.7838249, -122.4155045)"	37.7838249	 -122.4155045
1982-009	Swiss American Hotel	"534 Broadway, San Francisco, CA 94133"	66	34	0	Chinatown Community Development Center	North Beach	3	"(37.7982368, -122.4061584)"	37.7982368	 -122.4061584
1982-010	Bayside Village	"3 Bayside Village Pl, San Francisco, CA 94107"	862	172	0	Bayside Village Associates	Financial District/South Beach	6	"(37.7846985, -122.3899307)"	37.7846985	 -122.3899307
1983-001	Chinese Community Church of San Francisco	"1535 Jackson St, San Francisco, CA 94109"	18	10	0	Chinese Community Church of San Francisco	Russian Hill	3	"(37.7939987, -122.4203644)"	37.7939987	 -122.4203644
1984-001	Women's Hope	"2261 Bryant St, San Francisco, CA 94110"	16	10	0	Mission Housing Development Corporation / HealthRight360	Mission	9	"(37.7583008, -122.4093399)"	37.7583008	 -122.4093399
1984-002	Cadillac Hotel	"380 Eddy St, San Francisco, CA 94102"	158	158	0	Reality House West	Tenderloin	6	"(37.7840538, -122.4139404)"	37.7840538	 -122.4139404
1984-003	450 Ellis St	"450 Ellis St, San Francisco, CA 94102"	29	24	0	"Asian, Inc."	Tenderloin	6	"(37.7850113, -122.4136887)"	37.7850113	 -122.4136887
1984-004	Maria Alicia Apartments	"3090 16th St, San Francisco, CA 94103"	20	11	0	Mission Housing Development Corporation	Mission	9	"(37.7651749, -122.4215927)"	37.7651749	 -122.4215927
1984-005	Reardon Heights (formerly Aspen South Hills)	"50 Reardon Rd, San Francisco, CA 94124"	82	82	0	"Reardon Heights Associates, LP"	Bayview Hunters Point	10	"(37.7294388, -122.3766556)"	37.7294388	 -122.3766556
1984-006	St. Claire Residence	"585 Geary St, San Francisco, CA 94102"	41	39	0	Chinatown Community Development Center	Tenderloin	6	"(37.7865829, -122.4128418)"	37.7865829	 -122.4128418
1984-007	735 Ellis	"735 Ellis St, San Francisco, CA 94109"	30	30	0	"Asian, Inc."	Tenderloin	6	"(37.7839088, -122.4183044)"	37.7839088	 -122.4183044
1984-008	Fillmore Center	"1475 Fillmore St, San Francisco, CA 94115"	"1,114"	558	0	Elkor Realty Corporation	Western Addition	5	"(37.7826195, -122.4333191)"	37.7826195	 -122.4333191
1984-009	Rincon Center	"88 Howard St, San Francisco, CA 94105"	320	76	0	"Carmel Partners, Inc (BRE/Rincon, LLC)"	Financial District/South Beach	6	"(37.7922668, -122.3928452)"	37.7922668	 -122.3928452
1984-010	South Beach Marina Apartments	"2 Townsend St, San Francisco, CA 94107"	414	101	0	"South Beach Marina, Inc."	Financial District/South Beach	6	"(37.7824059, -122.3898087)"	37.7824059	 -122.3898087
1985-001	Civic Center Residence	"44 McAllister St, San Francisco, CA 94102"	212	211	0	Tenderloin Neighborhood Development Corporation	Tenderloin	6	"(37.7813301, -122.4127884)"	37.7813301	 -122.4127884
1985-002	Klimm Apartments	"460 Ellis St, San Francisco, CA 94102"	42	41	0	Tenderloin Neighborhood Development Corporation	Tenderloin	6	"(37.784996, -122.413826)"	"37.784996,"	-122.413826)
1985-003	Junipero Serra House	"926 Fillmore St, San Francisco, CA 94117"	25	24	0	Mercy Housing California	Western Addition	5	"(37.7780151, -122.4313583)"	37.7780151	 -122.4313583
1986-001	Carmelita Apartments	"391 Valencia St, San Francisco, CA 94103"	40	24	0	Housing Development & Neighborhood Preservation Corporation	Mission	9	"(37.7668114, -122.4217529)"	37.7668114	 -122.4217529
1987-001	Coleridge Park Homes	"190 Coleridge St, San Francisco, CA 94110"	49	49	0	Bridge Housing	Bernal Heights	9	"(37.7433434, -122.4206238)"	37.7433434	 -122.4206238
1987-002	Del Carlo Court	"3330 Cesar Chavez St, San Francisco, CA 94110"	25	25	0	Mission Housing Development Corporation	Mission	9	"(37.7485352, -122.4168167)"	37.7485352	 -122.4168167
1987-003	Arlington Hotel	"472 Ellis St, San Francisco, CA 94102"	154	153	0	Mercy Housing California	Tenderloin	6	"(37.7849808, -122.4141312)"	37.7849808	 -122.4141312
1987-004	Mendelsohn House	"737 Folsom St, San Francisco, CA 94107"	189	189	0	TODCO Group	South of Market	6	"(37.7826805, -122.3997345)"	37.7826805	 -122.3997345
1987-005	City Heights Apts (aka Avalon Nob Hill)	"840 Post St, San Francisco, CA 94109"	185	37	0	"Bay Apartment Communities, Inc."	Nob Hill	3	"(37.7877769, -122.4159393)"	37.7877769	 -122.4159393
1988-001	Mercy Family Plaza	"1509 Hayes St, San Francisco, CA 94117"	36	22	0	Mercy Housing California	Lone Mountain/USF	5	"(37.77425, -122.4419556)"	"37.77425, "	122.4419556)
1988-002	Lady Shaw	"1483 Mason St, San Francisco, CA 94133"	70	69	0	Self Help For The Elderly	Nob Hill	3	"(37.7969666, -122.412323)"	37.7969666	 -122.412323)
1988-003	1738 Mission	"1738 Mission St, San Francisco, CA 94103"	10	7	0	"Asian, Inc."	Mission	9	"(37.7692223, -122.4203873)"	37.7692223	 -122.4203873
1988-004	Cambridge Hotel	"473 Ellis St, San Francisco, CA 94102"	60	60	0	Community Housing Partnership	Tenderloin	6	"(37.7844353, -122.4139252)"	37.7844353	 -122.4139252
1988-005	Geary Courtyard	"639 Geary St, San Francisco, CA 94102"	164	19	0	Geary Courtyard Associates	Tenderloin	6	"(37.7863846, -122.4136505)"	37.7863846	 -122.4136505
1988-006	Bayside Elderly Housing	"777 Broadway, San Francisco, CA 94133"	31	30	0	Chinatown Community Development Center	Chinatown	3	"(37.7970352, -122.4093475)"	37.7970352	 -122.4093475
1988-007	Monsignor Lyne Community	"118 Diamond St, San Francisco, CA 94114"	20	19	0	Mercy Housing California	Castro/Upper Market	8	"(37.7601013, -122.4370041)"	37.7601013	 -122.4370041
1988-008	Embarcadero Triangle (Parcel J)	"600 The Embarcadero, San Francisco, CA 94111"	177	177	0	Delancey Street Foundation	Financial District/South Beach	6	"(37.7834854, -122.3888931)"	37.7834854	 -122.3888931
1989-002	Brennan House	Confidential	15	15	0	St. Vincent De Paul Society	Confidential	0	"(0.0, 0.0)"	"0.0, 0.0)"	
1989-003	Abel Gonzales Apartments	"1045 Capp St, San Francisco, CA 94110"	30	30	0	Mission Housing Development Corporation	Mission	9	"(37.7502785, -122.4168549)"	37.7502785	 -122.4168549
1989-004	Jelani House	"1601 Quesada Ave, San Francisco, CA 94124"	13	0	16	"Jelani, Inc. (Bayview Hunters Point Foundation)"	Bayview Hunters Point	10	"(37.7321968, -122.3899765)"	37.7321968	 -122.3899765
1989-005	Casa Aviva	"1724 Bryant St, San Francisco, CA 94110"	4	4	0	Mission Housing Development Corporation / Latino Commision	Mission	9	"(37.7650337, -122.4107437)"	37.7650337	 -122.4107437
1989-006	Leandro Soto Apartments	"2155 Mission St, San Francisco, CA 94110"	48	48	0	OBECA / Arriba Juntos	Mission	9	"(37.7625275, -122.4188614)"	37.7625275	 -122.4188614
1989-007	SafeHouse	Confidential	0	0	10	San Francisco Network Ministries	Confidential	0	"(0.0, 0.0)"	"0.0, 0.0)"	
1989-008	Plaza del Sol	"440 Valencia St, San Francisco, CA 94103"	59	59	0	Mission Housing Development Corporation	Mission	8	"(37.765152, -122.4228745)"	"37.765152,"	-122.4228745)
1989-009	525 O'Farrell Street	"525 O'Farrell St, San Francisco, CA 94102"	26	25	0	"Asian, Inc."	Tenderloin	6	"(37.7854538, -122.4134293)"	37.7854538	 -122.4134293
1989-010	Midori Hotel	"240 Hyde St, San Francisco, CA 94102"	77	77	0	Conard House	Tenderloin	6	"(37.7831573, -122.4155273)"	37.7831573	 -122.4155273
1989-011	Progress Apartments	"1272 South Van Ness Ave, San Francisco, CA 94110"	12	11	0	Progress Foundation	Mission	9	"(37.752758, -122.4166641)"	"37.752758,"	-122.4166641)
1989-012	El Dorado Hotel	"150 9th St, San Francisco, CA 94103"	57	43	0	Conard House	South of Market	6	"(37.7753677, -122.4141159)"	37.7753677	 -122.4141159
1989-013	St. Joseph's Family Shelter	"899 Guerrero St, San Francisco, CA 94110"	10	0	20	Catholic Charities	Mission	8	"(37.7569656, -122.4230652)"	37.7569656	 -122.4230652
1990-001	San Cristina	"1000 Market St, San Francisco, CA 94102"	58	58	0	Community Housing Partnership	Tenderloin	6	"(37.7820435, -122.4109879)"	37.7820435	 -122.4109879
1990-002	Connecticut St Court	"1206-1228 Connecticut St, San Francisco, CA 94107"	10	10	0	Asian Neighborhood Design	Bayview Hunters Point	10	"(37.7508354, -122.3985062)"	37.7508354	 -122.3985062
1990-003	William Penn Hotel	"160 Eddy St, San Francisco, CA 94102"	91	89	0	Chinatown Community Development Center	Tenderloin	6	"(37.7845001, -122.4102631)"	37.7845001	 -122.4102631
1990-004	Ritz Hotel	"216 Eddy St, San Francisco, CA 94102"	89	88	0	Tenderloin Neighborhood Development Corporation	Tenderloin	6	"(37.7843285, -122.4112473)"	37.7843285	 -122.4112473
1990-005	Richard M. Cohen Residence	"220 Dolores St, San Francisco, CA 94114"	10	9	0	Dolores Street Community Services	Castro/Upper Market	8	"(37.7657967, -122.4270401)"	37.7657967	 -122.4270401
1990-006	3019 23rd	"3019 23rd St, San Francisco, CA 94110"	6	5	0	Mission Housing Development Corporation	Mission	9	"(37.7539825, -122.4125137)"	37.7539825	 -122.4125137
1990-007	375 Eddy	"375 Eddy St, San Francisco, CA 94102"	35	32	0	Indochinese Housing Development Corporation	Tenderloin	6	"(37.7835121, -122.413681)"	37.7835121	 -122.413681)
1990-008	Hamlin Hotel	"385 Eddy St, San Francisco, CA 94102"	67	65	0	Chinatown Community Development Center	Tenderloin	6	"(37.7835617, -122.4138641)"	37.7835617	 -122.4138641
1990-009	Senator Residence	"519 Ellis St, San Francisco, CA 94109"	89	86	0	Community Housing Partnership	Tenderloin	6	"(37.784317, -122.4148636)"	"37.784317,"	-122.4148636)
1990-010	575 Eddy	"575 Eddy St, San Francisco, CA 94102"	47	42	0	"Asian, Inc."	Tenderloin	6	"(37.7830925, -122.4169693)"	37.7830925	 -122.4169693
1990-011	Baker's Dozen	"733 Baker St, San Francisco, CA 94115"	13	0	12	Northern California Land Trust	Lone Mountain/USF	5	"(37.7776871, -122.442131)"	37.7776871	 -122.442131)
1990-012	Hayes Adult Residence	"890 Hayes St, San Francisco, CA 94117"	115	0	104	HealthRight360	Hayes Valley	5	"(37.7761574, -122.4309006)"	37.7761574	 -122.4309006
1990-013	Fillmore Marketplace Apartments	"1223 Webster St, San Francisco, CA 94115"	120	120	0	"Fillmore Marketplace Associates, LP"	Western Addition	5	"(37.7819557, -122.4310455)"	37.7819557	 -122.4310455
1990-014	Fell Street Apartments	"333 Fell St, San Francisco, CA 94102"	82	82	0	Bridge Housing	Hayes Valley	5	"(37.7756119, -122.4234314)"	37.7756119	 -122.4234314
1990-015	Knox Hotel	"241 6th St, San Francisco, CA 94103"	140	138	0	TODCO Group	South of Market	6	"(37.7793732, -122.4062576)"	37.7793732	 -122.4062576
1990-016	Steamboat Point (Parcel K)	"49-55 Townsend St, San Francisco, CA 94107"	108	108	0	Bridge Housing	Mission Bay	6	"(37.7812157, -122.3889694)"	37.7812157	 -122.3889694
1990-017	Padre Palou Community	"3400-3402 16th St, San Francisco, CA 94114"	18	18	0	Mercy Housing California	Castro/Upper Market	8	"(37.7647285, -122.4290009)"	37.7647285	 -122.4290009
1990-018	Odyssey House	"484 Oak St, San Francisco, CA 94102"	10	10	10	Baker Places	Hayes Valley	5	"(37.7746353, -122.4272385)"	37.7746353	 -122.4272385
1991-004	St. Olga's Home	"275 Collins St, San Francisco, CA 94118"	10	0	10	Russian American Community Services	Lone Mountain/USF	1	"(37.7810707, -122.4500732)"	37.7810707	 -122.4500732
1991-005	Moultrie House	"374 Moultrie St, San Francisco, CA 94110"	9	9	0	Bernal Heights Neighborhood Center	Bernal Heights	9	"(37.7394371, -122.4160538)"	37.7394371	 -122.4160538
1991-006	518 Minna	"518 Minna St, San Francisco, CA 94103"	24	23	0	"Asian, Inc."	South of Market	6	"(37.7804031, -122.4085999)"	37.7804031	 -122.4085999
1991-007	555 Ellis Street Family Apartments	"555 Ellis St, San Francisco, CA 94109"	38	37	0	Asian Neighborhood Design	Tenderloin	6	"(37.7842598, -122.4154129)"	37.7842598	 -122.4154129
1991-008	Webster Apartments	"650 Webster St, San Francisco, CA 94102"	2	2	0	Progress Foundation	Hayes Valley	5	"(37.7767639, -122.4293976)"	37.7767639	 -122.4293976
1991-009	Alcantara Court	"670 Valencia St, San Francisco, CA 94110"	50	50	0	Mission Housing Development Corporation	Mission	8	"(37.7624779, -122.4221878)"	37.7624779	 -122.4221878
1991-010	1101 Howard	"1101 Howard St, San Francisco, CA 94103"	34	34	0	Mercy Housing California	South of Market	6	"(37.7776146, -122.4093933)"	37.7776146	 -122.4093933
1991-011	Herald Hotel Apartments	"302-308 Eddy St, San Francisco, CA 94102"	72	29	0	"Bristol Equity Capital, Inc."	Tenderloin	6	"(37.7841148, -122.4129181)"	37.7841148	 -122.4129181
1992-006	Market Heights	"1000 Tompkins Ave, San Francisco, CA 94110"	46	45	0	Bernal Heights Neighborhood Center	Bernal Heights	9	"(37.7362823, -122.410141)"	37.7362823	 -122.410141)
1992-007	Clara House	"111 Page St, San Francisco, CA 94102"	13	13	0	Compass Community Services	Hayes Valley	5	"(37.7737427, -122.4230423)"	37.7737427	 -122.4230423
1992-008	Larkin Pine Senior Housing	"1303 Larkin St, San Francisco, CA 94109"	63	62	0	Chinatown Community Development Center	Nob Hill	3	"(37.7900658, -122.4192505)"	37.7900658	 -122.4192505
1992-009	Swords to Plowshares (De Montfort)	"27/42 De Montfort Ave, San Francisco, CA 94112"	22	15	0	Swords To Plowshares	Oceanview/Merced/Ingleside	7	"(37.7234344, -122.4587021)"	37.7234344	 -122.4587021
1992-010	2782 24th	"2782 24th St, San Francisco, CA 94110"	3	3	0	Mission Housing Development Corporation	Mission	9	"(37.7531013, -122.4078903)"	37.7531013	 -122.4078903
1992-011	Columbia Park	"1035 Folsom St, San Francisco, CA 94103"	50	50	0	Mercy Housing California	South of Market	6	"(37.7777367, -122.405899)"	37.7777367	 -122.405899)
1992-012	Eddy Street Apartments	"1096 Eddy St, San Francisco, CA 94109"	21	20	0	Progress Foundation	Western Addition	5	"(37.782547, -122.4258118)"	"37.782547,"	-122.4258118)
1992-013	Good Samaritan Apartments	"1290-1294 Potrero Ave, San Francisco, CA 94110"	20	19	0	Mission Housing Development Corporation	Mission	9	"(37.751873, -122.4065704)"	"37.751873,"	-122.4065704)
1992-014	1028 Howard	"1028 Howard St, San Francisco, CA 94103"	30	30	0	Mercy Housing California	South of Market	6	"(37.7794685, -122.4079208)"	37.7794685	 -122.4079208
1993-002	Asian Women's Shelter	Confidential	5	0	16	Mei Fong And Associates	Confidential	0	"(0.0, 0.0)"	"0.0, 0.0)"	
1993-003	Peter Claver Community	"1340 Golden Gate Ave, San Francisco, CA 94115"	32	31	0	Catholic Charities	Western Addition	5	"(37.7797546, -122.4327164)"	37.7797546	 -122.4327164
1993-004	1370 California Apartments	"1370 California St, San Francisco, CA 94109"	49	48	0	Chinatown Community Development Center	Nob Hill	3	"(37.791378, -122.4170609)"	"37.791378,"	-122.4170609)
1993-005	1912 McAllister	"1912 McAllister St, San Francisco, CA 94115"	0	0	4	Westside Community Services	Lone Mountain/USF	5	"(37.7773514, -122.4436951)"	37.7773514	 -122.4436951
1993-006	Woolsey Apartments	"195 Woolsey St, San Francisco, CA 94134"	10	9	0	Bernal Heights Neighborhood Center	Portola	9	"(37.7248039, -122.4033737)"	37.7248039	 -122.4033737
1993-007	205 Jones	"205 Jones St, San Francisco, CA 94102"	50	49	0	Mercy Housing California	Tenderloin	6	"(37.7831726, -122.4126816)"	37.7831726	 -122.4126816
1993-008	Plaza Ramona Apartments	"250 McAllister St, San Francisco, CA 94102"	63	62	0	Tenderloin Neighborhood Development Corporation	Tenderloin	6	"(37.7808838, -122.416275)"	37.7808838	 -122.416275)
1993-009	Altamont Hotel	"3048 16th St, San Francisco, CA 94103"	89	88	0	Mission Housing Development Corporation	Mission	9	"(37.7652321, -122.4206772)"	37.7652321	 -122.4206772
1993-010	Richmond Hills Family Center	"6324 Geary Blvd, San Francisco, CA 94121"	20	0	20	Mercy Housing California	Outer Richmond	1	"(37.7802811, -122.4873886)"	37.7802811	 -122.4873886
1993-011	Leland House	"141 Leland Ave, San Francisco, CA 94134"	45	44	0	Mercy Housing California	Visitacion Valley	10	"(37.7119751, -122.4063568)"	37.7119751	 -122.4063568
1993-012	Gabreila Apartments	"583-587 Natoma St, San Francisco, CA 94103"	29	29	0	Housing Development & Neighborhood Preservation Corporation	South of Market	6	"(37.7786293, -122.4093857)"	37.7786293	 -122.4093857
1993-013	A WOMANS PLACE	Confidential	11	0	54	"Community Awareness & Treatment Services, Inc."	Confidential	0	"(0.0, 0.0)"	"0.0, 0.0)"	
1993-014	1761-1765 Page	"1761 Page St, San Francisco, CA 94117"	13	13	0	Baker Places	Haight Ashbury	5	"(37.7703285, -122.4496613)"	37.7703285	 -122.4496613
1993-015	Precita House	"416 Precita Ave, San Francisco, CA 94110"	5	5	0	Bernal Heights Neighborhood Center	Bernal Heights	9	"(37.7467003, -122.4111252)"	37.7467003	 -122.4111252
1994-003	Juan Pifarre Plaza	"3101 21st St, San Francisco, CA 94110"	30	29	0	Mission Housing Development Corporation	Mission	9	"(37.7568779, -122.4171448)"	37.7568779	 -122.4171448
1994-004	Fannie Lou Hamer House	"1221 Cortland Ave, San Francisco, CA 94110"	2	2	0	Bernal Heights Neighborhood Center	Bernal Heights	9	"(37.7398567, -122.411972)"	37.7398567	 -122.411972)
1994-005	Hamilton Family Transitional Program	"1631 Hayes St, San Francisco, CA 94117"	20	19	0	Hamilton Family Center	Lone Mountain/USF	5	"(37.7738266, -122.4432297)"	37.7738266	 -122.4432297
1994-006	Goodman 2 Art Complex	"1695 18th St, San Francisco, CA 94107"	29	5	0	Artspace Development Corporation	Potrero Hill	10	"(37.7619286, -122.39888)"	37.7619286	 -122.39888)
1994-007	Ashbury House	"212 Ashbury St, San Francisco, CA 94117"	1	0	3	Progress Foundation	Lone Mountain/USF	5	"(37.7734566, -122.4471893)"	37.7734566	 -122.4471893
1994-008	2300 Van Ness	"2300 Van Ness Ave, San Francisco, CA 94109"	22	21	0	"Asian, Inc."	Russian Hill	3	"(37.7969589, -122.4232712)"	37.7969589	 -122.4232712
1994-009	Magdalena Mora House	"2973 26th St, San Francisco, CA 94110"	2	2	0	Bernal Heights Neighborhood Center	Mission	9	"(37.7493706, -122.4095154)"	37.7493706	 -122.4095154
1994-010	Iroquois Hotel	"835 O'Farrell St, San Francisco, CA 94109"	74	74	0	Community Housing Partnership	Tenderloin	6	"(37.7848511, -122.418396)"	37.7848511	 -122.418396)
1994-011	479 Natoma	"479 Natoma St, San Francisco, CA 94103"	30	29	0	"Asian, Inc."	South of Market	6	"(37.7803612, -122.4069824)"	37.7803612	 -122.4069824
1994-012	Glenridge Apartments	"9 Berkeley Way, San Francisco, CA 94131"	275	273	0	Glenridge Apartments Residents' Council	Glen Park	8	"(37.7386856, -122.4380569)"	37.7386856	 -122.4380569
1994-013	The Rose	"125 6th St, San Francisco, CA 94103"	76	75	0	Mercy Housing California	South of Market	6	"(37.7808571, -122.4080582)"	37.7808571	 -122.4080582
1994-014	Planetree Housing Program	"152-154 Coleridge St, San Francisco, CA 94110"	14	11	0	HealthRight360	Bernal Heights	9	"(37.7435074, -122.4202576)"	37.7435074	 -122.4202576
1994-015	Maitri	"401 Duboce Ave, San Francisco, CA 94114"	15	0	15	Maitri	Castro/Upper Market	8	"(37.7691917, -122.4294281)"	37.7691917	 -122.4294281
1994-016	Diamond View Apartments	"173-204 Addison St, San Francisco, CA 94131"	58	58	0	Diamond View Residents' Association	Glen Park	8	"(37.7389145, -122.4332504)"	37.7389145	 -122.4332504
1994-017	International Hotel	"848 Kearny St, San Francisco, CA 94111"	105	104	0	Chinatown Community Development Center	Chinatown	3	"(37.7958374, -122.4044266)"	37.7958374	 -122.4044266
1995-008	Mary Elizabeth Inn	"1040 Bush St, San Francisco, CA 94109"	92	88	0	Mary Elizabeth Inn	Nob Hill	3	"(37.7897224, -122.4144897)"	37.7897224	 -122.4144897
1995-009	Lyric Hotel	"140 Jones St, San Francisco, CA 94102"	58	58	0	Conard House	Tenderloin	6	"(37.7826462, -122.4120712)"	37.7826462	 -122.4120712
1995-010	Walden Adolescent	"214 Haight St, San Francisco, CA 94102"	64	0	12	HealthRight360	Hayes Valley	5	"(37.7729416, -122.4261475)"	37.7729416	 -122.4261475
1995-011	Notre Dame Plaza	"347 Dolores St, San Francisco, CA 94110"	66	65	0	Mercy Housing California	Mission	8	"(37.7639008, -122.4254074)"	37.7639008	 -122.4254074
1995-012	Apollo Hotel	"420 Valencia St, San Francisco, CA 94103"	81	80	0	Mission Housing Development Corporation	Mission	8	"(37.7661209, -122.4223862)"	37.7661209	 -122.4223862
1995-013	Eddy Street Apartments (CATS)	"425 Eddy St, San Francisco, CA 94102"	25	25	0	"Community Awareness & Treatment Services, Inc."	Tenderloin	6	"(37.783432, -122.4146957)"	"37.783432,"	-122.4146957)
1995-014	Cameo Apartments	"481 Eddy St, San Francisco, CA 94102"	31	30	0	Tenderloin Neighborhood Development Corporation	Tenderloin	6	"(37.7833481, -122.4155045)"	37.7833481	 -122.4155045
1995-015	Geraldine Johnson Manor	"5545 3rd St, San Francisco, CA 94124"	54	53	0	Bridge Housing / San Francisco Housing Development Corporation (Bayview Senior Housing)	Bayview Hunters Point	10	"(37.7270927, -122.3931198)"	37.7270927	 -122.3931198
1995-016	Monterey Boulevard Apartments	"403 Monterey Blvd, San Francisco, CA 94112"	4	4	0	Bernal Heights Neighborhood Center	West of Twin Peaks	7	"(37.7313881, -122.4445801)"	37.7313881	 -122.4445801
1995-017	Minna Park Family Housing	"529-539 Minna St, San Francisco, CA 94103"	26	25	0	Asian Neighborhood Design	South of Market	6	"(37.779789, -122.4088287)"	"37.779789,"	-122.4088287)
1995-018	Larkin St Assisted Care Program	"129 Hyde St, San Francisco, CA 94102"	12	12	0	Larkin Street Youth Services	Tenderloin	6	"(37.782032, -122.4159393)"	"37.782032,"	-122.4159393)
1995-019	Hazel Betsey	"3554 17th St, San Francisco, CA 94110"	9	9	0	Bernal Heights Housing Corporation	Mission	8	"(37.76334, -122.4251251)"	"37.76334, "	122.4251251)
1995-020	Coventry Place	"1550 Sutter St, San Francisco, CA 94109"	169	34	0	SRG Senior Living	Pacific Heights	5	"(37.7874947, -122.4259644)"	37.7874947	 -122.4259644
1996-004	Britton Courts	"1250 Sunnydale Ave, San Francisco, CA 94134"	92	92	0	Mercy Housing California	Visitacion Valley	10	"(37.7117157, -122.4133606)"	37.7117157	 -122.4133606
1996-005	Heritage Homes	"243 Rey St, San Francisco, CA 94134"	148	146	0	Mercy Housing California	Visitacion Valley	10	"(37.7101173, -122.4124451)"	37.7101173	 -122.4124451
1996-006	Bernal Gateway	"3101 Mission St, San Francisco, CA 94110"	55	55	0	Bernal Heights Neighborhood Center	Bernal Heights	9	"(37.747654, -122.4177399)"	"37.747654,"	-122.4177399)
1996-007	Leland Apartments	"980 Howard St, San Francisco, CA 94103"	24	23	0	TODCO Group	South of Market	6	"(37.7803612, -122.4069824)"	37.7803612	 -122.4069824
1996-008	Cecil Williams Glide Community House	"333 Taylor St, San Francisco, CA 94102"	52	52	0	Glide	Tenderloin	6	"(37.785305, -122.4116135)"	"37.785305,"	-122.4116135)
1996-009	John King Senior Community	"500 Raymond Ave, San Francisco, CA 94134"	91	90	0	Mercy Housing California	McLaren Park	10	"(37.7157059, -122.4123459)"	37.7157059	 -122.4123459
1996-010	The Arc Apartments	"416 Bay St, San Francisco, CA 94133"	8	8	0	The Arc	North Beach	3	"(37.8057899, -122.4139709)"	37.8057899	 -122.4139709
1996-011	Crocker Amazon Senior Apartments	"5199 Mission St, San Francisco, CA 94112"	37	36	0	Bernal Heights Neighborhood Center	Excelsior	11	"(37.7153969, -122.4414444)"	37.7153969	 -122.4414444
1996-012	Presentation Senior Community	"301 Ellis St, San Francisco, CA 94102"	93	92	0	Mercy Housing California	Tenderloin	6	"(37.7847519, -122.411438)"	37.7847519	 -122.411438)
1996-013	Hotel Isabel	"1091-1099 Mission St, San Francisco, CA 94103"	75	73	0	TODCO Group	South of Market	6	"(37.7792091, -122.4105377)"	37.7792091	 -122.4105377
1996-015	1005 Larkin	"1005 Larkin St, San Francisco, CA 94109"	28	21	0	"Chong, Edmond And Mei Wan Chong"	Nob Hill	3	"(37.7872276, -122.4184952)"	37.7872276	 -122.4184952
1997-008	Canon Barcus Community House	"670 Natoma St, San Francisco, CA 94103"	48	48	0	Episcopal Community Services	South of Market	6	"(37.7771416, -122.4118881)"	37.7771416	 -122.4118881
1997-009	26th Street Cooperative Apartments	"3327-3331 26th St, San Francisco, CA 94110"	10	0	16	Conard House	Mission	9	"(37.7488747, -122.4165878)"	37.7488747	 -122.4165878
1997-010	La Playa Apartments	"770 La Playa St, San Francisco, CA 94121"	14	13	0	Progress Foundation	Outer Richmond	1	"(37.7739334, -122.5097504)"	37.7739334	 -122.5097504
1997-011	Autumn Glow	"654 Grove St, San Francisco, CA 94102"	15	0	15	Self Help For The Elderly	Hayes Valley	5	"(37.7774925, -122.4273682)"	37.7774925	 -122.4273682
1997-012	SOMA Residences	"1045 Mission St, San Francisco, CA 94103"	278	55	0	"Emerald Fund, Inc."	South of Market	6	"(37.7797432, -122.4096451)"	37.7797432	 -122.4096451
1997-013	Laurel Gardens Apartments	"1555 Turk St, San Francisco, CA 94115"	52	51	0	Bethel African Methodist Episcopal Church	Western Addition	5	"(37.7798805, -122.4344864)"	37.7798805	 -122.4344864
1997-014	Bayview Commons	"4445 3rd St, San Francisco, CA 94124"	30	29	0	San Francisco Housing Development Corporation	Bayview Hunters Point	10	"(37.7373314, -122.3894348)"	37.7373314	 -122.3894348
1997-015	Positive Match	"1652 Eddy St, San Francisco, CA 94115"	7	7	0	Bernal Heights Neighborhood Center	Western Addition	5	"(37.781292, -122.4349594)"	"37.781292,"	-122.4349594)
1997-016	Church Street Apartments	"1 Church St, San Francisco, CA 94114"	93	92	0	Bridge Housing	Hayes Valley	8	"(37.7699509, -122.4287415)"	37.7699509	 -122.4287415
1997-017	Avalon At Mission Bay (Tower 2)	"200-298 Berry St, San Francisco, CA 94158"	313	19	0	AvalonBay Communities Inc.	Mission Bay	6	"(37.7743988, -122.3956451)"	37.7743988	 -122.3956451
1997-018	Avalon At Mission Bay (Tower 1)	"255 King St, San Francisco, CA 94107"	510	21	0	AvalonBay Communities Inc.	Mission Bay	6	"(37.7765312, -122.3932495)"	37.7765312	 -122.3932495
1997-019	Tabernacle Vista Apartments	"2139 O'Farrell St, San Francisco, CA 94115"	21	21	0	Tabernacle Community Development Corporation	Western Addition	5	"(37.7820435, -122.4401703)"	37.7820435	 -122.4401703
1998-008	Veterans Academy	"1030 Girard Rd, San Francisco, CA 94129"	108	100	0	Swords To Plowshares	Presidio	2	"(37.8020782, -122.453392)"	37.8020782	 -122.453392)
1998-009	Ellis Street Apartments	"864 Ellis St, San Francisco, CA 94109"	25	25	0	Tenderloin Neighborhood Development Corporation	Tenderloin	6	"(37.7841644, -122.4204254)"	37.7841644	 -122.4204254
1998-010	Ambassador Hotel	"55 Mason St, San Francisco, CA 94102"	134	134	0	Tenderloin Neighborhood Development Corporation	Tenderloin	6	"(37.7840271, -122.4096069)"	37.7840271	 -122.4096069
1998-011	Eugene Coleman Senior Community	"328 Tehama St, San Francisco, CA 94103"	85	84	0	TODCO Group	South of Market	6	"(37.782177, -122.4027557)"	"37.782177,"	-122.4027557)
1998-012	MAC's Children and Family Services	"2168 Cayuga Ave, San Francisco, CA 94112"	3	0	0	"Mac's Children And Family Services, Inc."	Outer Mission	11	"(37.7104111, -122.4544373)"	37.7104111	 -122.4544373
1998-013	Golden Gate Apartments	"1820 Post St, San Francisco, CA 94115"	72	71	0	Chinatown Community Development Center	Japantown	5	"(37.7857246, -122.4321823)"	37.7857246	 -122.4321823
1998-014	Bayanihan House	"88 6th St, San Francisco, CA 94103"	152	151	0	TODCO Group	South of Market	6	"(37.7809219, -122.4091644)"	37.7809219	 -122.4091644
1998-015	Paramount	"680 Mission St, San Francisco, CA 94105"	486	99	0	"Third & Mission Associates, LLC"	Financial District/South Beach	6	"(37.7867622, -122.4019775)"	37.7867622	 -122.4019775
1998-016	TIHDI: TISH Phases 1 & 2	"1403 Sturgeon St, San Francisco, CA 94130"	66	66	0	Catholic Charities	Treasure Island	6	"(37.8281631, -122.3747482)"	37.8281631	 -122.3747482
1998-017	TIHDI: Female Offender Treatment and Education Program	"1440 Chinook Ct, San Francisco, CA 94130"	6	0	20	HealthRight360	Treasure Island	6	"(37.8243217, -122.3738708)"	37.8243217	 -122.3738708
1998-018	TIHDI: 1445 Chinook	"1445 Chinook Ct, San Francisco, CA 94130"	6	0	24	HealthRight360	Treasure Island	6	"(37.8239632, -122.3736725)"	37.8239632	 -122.3736725
1998-019	Halibut Court	"1432 Halibut Ct, San Francisco, CA 94130"	24	0	56	Swords To Plowshares	Treasure Island	6	"(37.8249168, -122.3746414)"	37.8249168	 -122.3746414
1998-020	SOMA Studios	"1188 Howard St, San Francisco, CA 94103"	88	88	0	Tenderloin Neighborhood Development Corporation	South of Market	6	"(37.7768059, -122.4114761)"	37.7768059	 -122.4114761
1998-021	Chinese American Citizens Alliance -S.F.	"843 Clay St, San Francisco, CA 94108"	26	23	0	Chinese American Citizens Alliance	Chinatown	3	"(37.7939529, -122.4072037)"	37.7939529	 -122.4072037
1998-022	Chinook Family Apartments	"1441 & 1443 Chinook Ct, San Francisco, CA 94130"	12	12	0	Swords To Plowshares	Treasure Island	6	"(37.8239632, -122.3736725)"	37.8239632	 -122.3736725
1999-010	Alexander Residence	"230 Eddy St, San Francisco, CA 94102"	179	178	0	Tenderloin Neighborhood Development Corporation	Tenderloin	6	"(37.7843666, -122.411499)"	37.7843666	 -122.411499)
1999-011	Antonia Manor	"180 Turk St, San Francisco, CA 94102"	133	133	0	Tenderloin Neighborhood Development Corporation	Tenderloin	6	"(37.7832375, -122.4122162)"	37.7832375	 -122.4122162
1999-012	Rich Sorro Commons	"150 Berry St, San Francisco, CA 94107"	100	100	0	Mission Housing Development Corporation	Mission Bay	6	"(37.7764664, -122.3930206)"	37.7764664	 -122.3930206
1999-013	Marlton Manor	"240-288 Jones St, San Francisco, CA 94102"	151	150	0	Mercy Housing California	Tenderloin	6	"(37.7837296, -122.412262)"	37.7837296	 -122.412262)
1999-014	Friendship House	"56 Julian Ave, San Francisco, CA 94103"	20	0	80	Friendship House	Mission	9	"(37.7672958, -122.421402)"	37.7672958	 -122.421402)
1999-015	Cameo House	"424 Guerrero St, San Francisco, CA 94110"	11	11	0	Center on Juvenile & Criminal Justice	Mission	8	"(37.7643127, -122.424469)"	37.7643127	 -122.424469)
1999-016	Carter Terrace	"530 Carter St, San Francisco, CA 94134"	101	100	0	Mercy Housing California	Excelsior	10	"(37.7089043, -122.4245834)"	37.7089043	 -122.4245834
1999-017	Kokoro Assisted Living Facility	"1881-1899 Bush St, San Francisco, CA 94109"	54	37	0	Kokoro Assisted Living Inc.	Pacific Heights	5	"(37.7874374, -122.4281311)"	37.7874374	 -122.4281311
1999-018	Notre Dame Apartments	"1590 Broadway, San Francisco, CA 94109"	204	201	0	Chinatown Community Development Center	Russian Hill	3	"(37.7962151, -122.4227371)"	37.7962151	 -122.4227371
1999-019	Maria Manor	"174 Ellis St, San Francisco, CA 94102"	119	119	0	Tenderloin Neighborhood Development Corporation	Tenderloin	6	"(37.7856293, -122.40905)"	37.7856293	 -122.40905)
1999-020	Providence Senior Housing	"4601 3rd St, San Francisco, CA 94124"	50	50	0	Providence Senior Housing Corporation	Bayview Hunters Point	10	"(37.7357864, -122.3899841)"	37.7357864	 -122.3899841
1999-021	TIHDI: Island Bay Homes	"1411 Flounder Ct, San Francisco, CA 94130"	66	64	0	Community Housing Partnership	Treasure Island	6	"(37.8267097, -122.3747864)"	37.8267097	 -122.3747864
1999-022	SOMA Family Apartments	"1166 Howard St, San Francisco, CA 94103"	74	74	0	Tenderloin Neighborhood Development Corporation	South of Market	6	"(37.7768059, -122.4114761)"	37.7768059	 -122.4114761
1999-023	Jelani Family Program	"1638 Kirkwood Ave, San Francisco, CA 94124"	8	0	12	"Jelani, Inc. (Bayview Hunters Point Foundation)"	Bayview Hunters Point	10	"(37.7388191, -122.3905716)"	37.7388191	 -122.3905716
1999-024	421 Turk	"421 Turk St, San Francisco, CA 94102"	29	28	0	"Asian, Inc."	Tenderloin	6	"(37.7823219, -122.4161072)"	37.7823219	 -122.4161072
1999-025	Chinese American Citizens Alliance Grand Lodge	"1044 Stockton St, San Francisco, CA 94108"	16	16	0	Chinese American Citizens Alliance	Chinatown	3	"(37.7955437, -122.4078674)"	37.7955437	 -122.4078674
2000-008	Pierce Street Apartments	"220 Pierce St, San Francisco, CA 94117"	8	8	0	Tenderloin Neighborhood Development Corporation	Haight Ashbury	5	"(37.7721863, -122.4335022)"	37.7721863	 -122.4335022
2000-009	Tower 737 (aka Post St Towers)	"737 Post St, San Francisco, CA 94109"	248	49	0	Sequoia Equities	Tenderloin	3	"(37.7870483, -122.414032)"	37.7870483	 -122.414032)
2000-010	214 Dolores	"214 Dolores St, San Francisco, CA 94114"	8	8	0	Baker Places	Castro/Upper Market	8	"(37.7659035, -122.4270401)"	37.7659035	 -122.4270401
2000-011	Broadway Family Apartments	"150 Broadway, San Francisco, CA 94111"	81	66	0	Chinatown Community Development Center	Financial District/South Beach	3	"(37.7989731, -122.4005814)"	37.7989731	 -122.4005814
2000-012	Namiki Apartments	"1776 Sutter St, San Francisco, CA 94115"	34	33	0	Chinatown Community Development Center / Namiki Apartments Residents Association	Pacific Heights	5	"(37.7868538, -122.4294891)"	37.7868538	 -122.4294891
2000-013	Ocean Beach Apartments	"720-740 La Playa St, San Francisco, CA 94121"	85	84	0	San Francisco Housing Development Corporation / Bayside Communities	Outer Richmond	1	"(37.7745361, -122.5097961)"	37.7745361	 -122.5097961
2000-014	Curran House	"145 Taylor St, San Francisco, CA 94102"	67	66	0	Tenderloin Neighborhood Development Corporation	Tenderloin	6	"(37.7836952, -122.4112244)"	37.7836952	 -122.4112244
2000-015	1340 Portola	"1340 Portola Dr, San Francisco, CA 94127"	6	0	6	West Bay Housing Corporation	West of Twin Peaks	7	"(37.7401123, -122.464653)"	37.7401123	 -122.464653)
2000-016	Derek Silva Community	"20 Franklin St, San Francisco, CA 94102"	68	68	0	Mercy Housing California	Hayes Valley	5	"(37.7745781, -122.4205322)"	37.7745781	 -122.4205322
2000-017	Buena Vista Terrace	"1250 Haight St, San Francisco, CA 94117"	40	39	0	Tenderloin Neighborhood Development Corporation	Haight Ashbury	5	"(37.770813, -122.4428711)"	"37.770813,"	-122.4428711)
2000-018	Rose Court	"2501 Pine St, San Francisco, CA 94115"	19	13	0	St. Rose Corporation	Pacific Heights	5	"(37.7871552, -122.4374313)"	37.7871552	 -122.4374313
2001-011	665 Clay	"665 Clay St, San Francisco, CA 94111"	25	25	0	Chinatown Community Development Center	Chinatown	3	"(37.7942924, -122.4040985)"	37.7942924	 -122.4040985
2001-012	Hartland Hotel	"909 Geary St, San Francisco, CA 94109"	136	136	0	Tenderloin Housing Clinic	Tenderloin	6	"(37.7858162, -122.4182892)"	37.7858162	 -122.4182892
2001-013	TIHDI: Rubicon Villages (CHP Villages)	"410 Avenue of the Palms, San Francisco, CA 94130"	44	43	0	Community Housing Partnership	Treasure Island	6	"(37.8278961, -122.3738251)"	37.8278961	 -122.3738251
2001-014	Seneca Hotel	"32-40 6th St, San Francisco, CA 94103"	202	88	0	Tenderloin Housing Clinic	South of Market	6	"(37.7814598, -122.4098587)"	37.7814598	 -122.4098587
2001-015	The Dudley Apartments	"172-180 6th St, San Francisco, CA 94103"	75	74	0	Mercy Housing California	South of Market	6	"(37.7798309, -122.4077988)"	37.7798309	 -122.4077988
2001-016	Curry Senior Center Apartments	"315 Turk St, San Francisco, CA 94102"	14	13	0	Curry Senior Center / 321 Turk	Tenderloin	6	"(37.7825432, -122.4143372)"	37.7825432	 -122.4143372
2001-017	North Beach Place	"455 Bay St, San Francisco, CA 94133"	341	112	0	Bridge Housing	North Beach	3	"(37.8049774, -122.4149933)"	37.8049774	 -122.4149933
2001-018	Leland Polk Senior Community	"1315 Polk St, San Francisco, CA 94109"	72	71	0	Mercy Housing California	Nob Hill	3	"(37.7889214, -122.4206238)"	37.7889214	 -122.4206238
2001-019	990 Polk	"990 Polk St, San Francisco, CA 94109"	110	109	0	Tenderloin Neighborhood Development Corporation	Tenderloin	6	"(37.7856789, -122.4193802)"	37.7856789	 -122.4193802
2001-020	Folsom + Dore Apartments	"1346 Folsom St, San Francisco, CA 94103"	98	96	0	Tenderloin Neighborhood Development Corporation	South of Market	6	"(37.7737503, -122.4124832)"	37.7737503	 -122.4124832
2001-021	McAllister Street Co-ops	"1840 McAllister St, San Francisco, CA 94115"	10	0	10	Conard House	Lone Mountain/USF	5	"(37.7775383, -122.4426193)"	37.7775383	 -122.4426193
2002-016	West Hotel	"141 Eddy St, San Francisco, CA 94102"	105	104	0	Tenderloin Neighborhood Development Corporation	Tenderloin	6	"(37.7839851, -122.409935)"	37.7839851	 -122.409935)
2002-017	Jordan Apartments	"820 O'Farrell St, San Francisco, CA 94109"	54	54	0	Conard House	Tenderloin	6	"(37.7853699, -122.4184341)"	37.7853699	 -122.4184341
2002-018	Padre Apartments	"241 Jones St, San Francisco, CA 94102"	41	40	0	Mercy Housing California	Tenderloin	6	"(37.7834778, -122.4128647)"	37.7834778	 -122.4128647
2002-019	Mission Creek Senior Community	"225 Berry St, San Francisco, CA 94158"	140	139	0	Mercy Housing California	Mission Bay	6	"(37.774704, -122.3940887)"	"37.774704,"	-122.3940887)
2002-020	The Coronet	"3595 Geary Blvd, San Francisco, CA 94118"	150	148	0	Bridge Housing	Lone Mountain/USF	1	"(37.7808723, -122.4579163)"	37.7808723	 -122.4579163
2002-021	Mosaica Family Apartments	"680 Florida St, San Francisco, CA 94110"	93	92	0	Tenderloin Neighborhood Development Corporation	Mission	9	"(37.7610321, -122.4115067)"	37.7610321	 -122.4115067
2002-022	Plaza Apartments	"988-992 Howard St, San Francisco, CA 94103"	106	106	0	Tenderloin Neighborhood Development Corporation	South of Market	6	"(37.7800751, -122.407135)"	37.7800751	 -122.407135)
2002-023	Westbrook Plaza	"227-255 7th St, San Francisco, CA 94103"	49	48	0	Mercy Housing California / Soma Health Center	South of Market	6	"(37.7776642, -122.4084244)"	37.7776642	 -122.4084244
2003-030	Valencia Gardens	"340-370 Valencia St, San Francisco, CA 94103"	260	259	0	Mission Housing Development Corporation	Mission	8	"(37.7670975, -122.4232025)"	37.7670975	 -122.4232025
2003-031	Edith Witt Senior Community	"66 9th St, San Francisco, CA 94103"	107	106	0	Mercy Housing California	South of Market	6	"(37.7760086, -122.4158173)"	37.7760086	 -122.4158173
2004-024	10th & Mission Family Housing	"1390 Mission St, San Francisco, CA 94103"	136	135	0	Mercy Housing California	South of Market	6	"(37.7760086, -122.4157944)"	37.7760086	 -122.4157944
2004-025	Hotel Essex	"684 Ellis St, San Francisco, CA 94109"	84	84	0	Community Housing Partnership	Tenderloin	6	"(37.7844505, -122.417511)"	37.7844505	 -122.417511)
2004-026	Arnett Watson Apartments	"650 Eddy St, San Francisco, CA 94109"	83	83	0	Community Housing Partnership	Tenderloin	6	"(37.7834435, -122.4185638)"	37.7834435	 -122.4185638
2004-027	Bishop Swing Community House	"275 10th St, San Francisco, CA 94103"	135	134	0	Episcopal Community Services	South of Market	6	"(37.7733955, -122.4127884)"	37.7733955	 -122.4127884
2004-028	Mission Hotel	"520 South Van Ness Ave, San Francisco, CA 94110"	244	244	0	Tenderloin Housing Clinic	Mission	9	"(37.7646332, -122.4178848)"	37.7646332	 -122.4178848
2004-029	Walden House	"815 Buena Vista Ave, San Francisco, CA 94117"	0	0	86	HealthRight360	Haight Ashbury	5	"(37.7693405, -122.4430771)"	37.7693405	 -122.4430771
2004-030	Mercy Terrace	"333 Baker St, San Francisco, CA 94117"	158	32	0	Mercy Housing California / Sisters of Mercy	Lone Mountain/USF	5	"(37.7738838, -122.4418259)"	37.7738838	 -122.4418259
2004-031	Crescent Cove	"420 Berry St, San Francisco, CA 94107"	236	234	0	Chinatown Community Development Center / Mission Bay Housing Partners	Mission Bay	6	"(37.772007, -122.399086)"	"37.772007,"	-122.399086)
2004-032	Ceatrice Polite Apartments	"321 Clementina St, San Francisco, CA 94103"	91	90	0	TODCO Group	South of Market	6	"(37.7819138, -122.402092)"	37.7819138	 -122.402092)
2004-033	Banneker Homes	"745-785 Fulton St, San Francisco, CA 94102"	108	108	0	"Banneker Homes, Inc."	Hayes Valley	5	"(37.7775574, -122.4289474)"	37.7775574	 -122.4289474
2004-034	Parkview Terrace	"871-881 Turk St, San Francisco, CA 94102"	101	100	0	Chinatown Community Development Center / Bayside Communities	Western Addition	5	"(37.7813339, -122.4235153)"	37.7813339	 -122.4235153
2005-033	Mosaica Senior Apartments	"655 Alabama St, San Francisco, CA 94110"	24	24	0	Tenderloin Neighborhood Development Corporation	Mission	9	"(37.7610321, -122.4115067)"	37.7610321	 -122.4115067
2005-034	149 Mason Street Apartments	"149 Mason St, San Francisco, CA 94102"	56	55	0	Glide	Tenderloin	6	"(37.7848053, -122.4097443)"	37.7848053	 -122.4097443
2006-020	Armstrong Place	"5600 3rd St, San Francisco, CA 94124"	116	116	0	Bridge Housing	Bayview Hunters Point	10	"(37.7272377, -122.3948441)"	37.7272377	 -122.3948441
2006-021	Hunters View (Phase 1)	"112 Middle Point Rd, San Francisco, CA 94124"	107	107	0	John Stewart Company / Ridgepoint / Devine & Gong	Bayview Hunters Point	10	"(37.7353745, -122.3805313)"	37.7353745	 -122.3805313
2006-022	Zygmunt Arendt House	"850 Broderick St, San Francisco, CA 94115"	47	46	0	Community Housing Partnership	Western Addition	5	"(37.7783356, -122.4398193)"	37.7783356	 -122.4398193
2006-023	Columbus United Cooperative	"53 Columbus Ave, San Francisco, CA 94111"	21	21	0	San Francisco Community Land Trust	Chinatown	3	"(37.7958908, -122.4043732)"	37.7958908	 -122.4043732
2006-024	Kelly Cullen Community	"220 Golden Gate Ave, San Francisco, CA 94102"	174	172	0	Tenderloin Neighborhood Development Corporation	Tenderloin	6	"(37.7821007, -122.4142761)"	37.7821007	 -122.4142761
2006-025	Richardson Apartments (Parcel G)	"365 Fulton St, San Francisco, CA 94102"	120	120	0	Community Housing Partnership	Hayes Valley	5	"(37.778492, -122.4229584)"	"37.778492,"	-122.4229584)
2006-026	Baldwin House Hotel	"72-76 6th St, San Francisco, CA 94103"	207	10	0	Tenderloin Housing Clinic	South of Market	6	"(37.7810478, -122.4093628)"	37.7810478	 -122.4093628
2006-027	125 Mason Street	"125 Mason St, San Francisco, CA 94102"	81	80	0	Glide	Tenderloin	6	"(37.7848053, -122.4097443)"	37.7848053	 -122.4097443
2007-001	Broadway Sansome Family Housing	"235 -295 Broadway St, San Francisco, CA 94111"	75	74	0	Chinatown Community Development Center	Financial District/South Beach	3	"(37.7982979, -122.4016266)"	37.7982979	 -122.4016266
2007-002	Natoma Family Apartments	"474 Natoma St, San Francisco, CA 94103"	60	59	0	Bridge Housing	South of Market	6	"(37.7806358, -122.4074326)"	37.7806358	 -122.4074326
2007-004	Rene Cazenave Apts (Transbay Block 11A)	"25 Essex St, San Francisco, CA 94105"	120	119	0	Community Housing Partnership	Financial District/South Beach	6	"(37.7863922, -122.395134)"	37.7863922	 -122.395134)
2007-005	Willie B Kennedy Senior Housing (Rosa Parks II)	"1239 Turk Street, San Francisco, CA 94115"	98	97	0	Tenderloin Neighborhood Development Corporation	Western Addition	5	"(37.7804604, -122.4286804)"	37.7804604	 -122.4286804
2007-017	St. Peter's Place	"420 29th Ave, San Francisco, CA 94121"	20	19	0	Bernal Heights Neighborhood Center	Outer Richmond	1	"(37.7813148, -122.4888077)"	37.7813148	 -122.4888077
2007-018	Winsor Hotel	"20 6th St, San Francisco, CA 94103"	51	4	0	Winsor Hotel	South of Market	6	"(37.7816772, -122.4101028)"	37.7816772	 -122.4101028
2007-019	Hunter Hotel	"100 6th St, San Francisco, CA 94103"	14	6	0	"Patel, Dipakbhai"	South of Market	6	"(37.7807121, -122.4087677)"	37.7807121	 -122.4087677
2007-020	Octavia Court	"261 Octavia St, San Francisco, CA 94102"	15	14	0	West Bay Housing Corporation / Satellite Housing	Hayes Valley	5	"(37.774601, -122.4244614)"	"37.774601,"	-122.4244614)
2008-002	1180 Fourth Street	"1180 4th St, San Francisco, CA 94158"	150	149	0	Mercy Housing California	Mission Bay	6	"(37.7735405, -122.3920288)"	37.7735405	 -122.3920288
2008-003	Vera Haile Senior Housing	"129 Golden Gate Ave, San Francisco, CA 94102"	90	89	0	Mercy Housing California / St. Anthony's	Tenderloin	6	"(37.7817879, -122.4125443)"	37.7817879	 -122.4125443
2008-031	Rafiki House	"1761 Turk St, San Francisco, CA 94115"	11	0	11	Rafiki House	Western Addition	5	"(37.7795486, -122.4379959)"	37.7795486	 -122.4379959
2008-032	Ferguson Place	"1249 Scott St, San Francisco, CA 94115"	12	12	12	Baker Places	Western Addition	5	"(37.781559, -122.4376907)"	"37.781559,"	-122.4376907)
2008-033	Veterans Commons	"150 Otis St, San Francisco, CA 94103"	76	75	0	Swords To Plowshares / Chinatown Community Development Center	Mission	6	"(37.7708511, -122.4206314)"	37.7708511	 -122.4206314
2008-034	Excelsior Teen Center	"4466-4468 Mission St, San Francisco, CA 94112"	1	1	0	Bernal Heights Neighborhood Center	Outer Mission	11	"(37.7263336, -122.4339142)"	37.7263336	 -122.4339142
2008-035	Bayview Hill Gardens	"1075 Le Conte Ave, San Francisco, CA 94124"	73	72	0	Mercy Housing California	Bayview Hunters Point	10	"(37.7187881, -122.3981094)"	37.7187881	 -122.3981094
2008-036	Turk & Eddy Apartments	"249 Eddy St, San Francisco, CA 94102"	82	80	0	Tenderloin Neighborhood Development Corporation	Tenderloin	6	"(37.7837601, -122.4117279)"	37.7837601	 -122.4117279
2009-001	1100 Ocean	"1100 Ocean Ave, San Francisco, CA 94112"	71	70	0	Mercy Housing California	West of Twin Peaks	7	"(37.7255745, -122.454155)"	37.7255745	 -122.454155)
2009-004	Dr. George W Davis Senior Housing	"1751 Carroll Avenue, San Francisco, CA 94124"	121	120	0	McCormack Baron Salazar / BHP Multi Senior Svcs	Bayview Hunters Point	10	"(37.7256203, -122.3958511)"	37.7256203	 -122.3958511
2009-020	Mary Helen Rodgers Senior Community	"701-725 Golden Gate Ave, San Francisco, CA 94102"	100	99	0	Chinatown Community Development Center	Western Addition	5	"(37.7805214, -122.4223862)"	37.7805214	 -122.4223862
2010-001	Edward II	"3151-3155 Scott St, San Francisco, CA 94123"	25	24	0	Community Housing Partnership	Marina	2	"(37.7989616, -122.4411392)"	37.7989616	 -122.4411392
2010-022	Madonna Residence	"350 Golden Gate Ave, San Francisco, CA 94102"	70	69	0	Mercy Housing California	Tenderloin	6	"(37.781826, -122.4163818)"	"37.781826,"	-122.4163818)
2010-023	Gum Moon Residence Hall	Confidential	33	0	26	Gum Moon	Confidential	0	"(0.0, 0.0)"	"0.0, 0.0)"	
2011-001	280 Beale	"280 Beale St, San Francisco, CA 94105"	70	69	0	Mercy Housing California	Financial District/South Beach	6	"(37.7881393, -122.3925781)"	37.7881393	 -122.3925781
2011-006	Tenderloin Family Housing	"201 Turk St, San Francisco, CA 94102"	175	174	0	Chinatown Community Development Center	Tenderloin	6	"(37.78265, -122.412941)"	"37.78265, "	122.412941)
2011-007	Franciscan Towers	"217 Eddy St, San Francisco, CA 94102"	105	104	0	Tenderloin Neighborhood Development Corporation	Tenderloin	6	"(37.7839165, -122.4112701)"	37.7839165	 -122.4112701
2012-007	Candlestick Heights	"833 Jamestown Ave, San Francisco, CA 94124"	196	194	0	"New Jamestown, LP"	Bayview Hunters Point	10	"(37.7171745, -122.3922195)"	37.7171745	 -122.3922195
2012-009	Pacific Pointe	"350 Friedell St, San Francisco, CA 94124"	60	59	0	Amcal	Bayview Hunters Point	10	"(37.7277565, -122.3707657)"	37.7277565	 -122.3707657
2012-017	Western Park Apartments	"1280 Laguna St, San Francisco, CA 94115"	182	182	0	Northern California Presbyterian Homes & Services	Western Addition	5	"(37.7828026, -122.4267883)"	37.7828026	 -122.4267883
2012-026	2175 Market	"2175 Market St, San Francisco, CA 94114"	88	18	0	"FC 2175 Market, LLC."	Castro/Upper Market	8	"(37.7662849, -122.4299164)"	37.7662849	 -122.4299164
2013-019	430 Turk Street - RAD Cluster 4	"430 Turk Street, San Francisco, CA 94102"	89	89	0	Tenderloin Neighborhood Development Corporation	Tenderloin	6	"(37.7827606, -122.4165726)"	37.7827606	 -122.4165726
2013-020	939 And 951 Eddy Street - RAD Cluster 3	"939 Eddy Street, San Francisco, CA 94109"	62	61	0	Tenderloin Neighborhood Development Corporation	Western Addition	5	"(37.7823143, -122.423111)"	37.7823143	 -122.423111)
2013-022	255 Woodside Avenue- RAD Cluster 6	"255 Woodside Avenue, San Francisco, CA 94127"	109	108	0	Bridge Housing & MEDA Housing	Twin Peaks	7	"(37.746582, -122.4552307)"	"37.746582,"	-122.4552307)
2013-023	1880 Pine Street- RAD California Corridor	"1880 Pine Street, San Francisco, CA 94109"	113	112	0	Mercy Housing California	Pacific Heights	2	"(37.789135, -122.4265823)"	"37.789135,"	-122.4265823)
2013-024	491 31st Avenue - California Corridor	"491 31st Avenue, San Francisco, CA 94103"	75	74	0	Mercy Housing California	Outer Richmond	1	"(37.7801208, -122.4915161)"	37.7801208	 -122.4915161
2013-025	345 Arguello - California Corridor	"345 Arguello Avenue, San Francisco, CA 94103"	69	68	0	Mercy Housing California	Inner Richmond	1	"(37.784214, -122.459465)"	"37.784214,"	-122.459465)
2013-026	227 Bay Street	"227 Bay Street, San Francisco, CA 94133"	50	49	0	Chinatown Community Development Center	North Beach	3	"(37.8056183, -122.411293)"	37.8056183	 -122.411293)
2013-027	462 Duboce- RAD Cluster 6	"462 Duboce Avenue, San Francisco, CA 94117"	42	41	0	Bridge Housing & MEDA Housing	Hayes Valley	8	"(37.7698021, -122.4307938)"	37.7698021	 -122.4307938
2013-028	666 Ellis Street - RAD Cluster 4	"666 Ellis Street, San Francisco, CA 94109"	99	99	0	Community Housing Partnership	Tenderloin	6	"(37.7845879, -122.4172363)"	37.7845879	 -122.4172363
2013-029	"1068 Palou Ave  and 1073 Oakdale Ave - RAD SE Cluster (aka Hunters Point East West, 90 Kiska)"	"1068 Palou Avenue, San Francisco, CA 94124"	213	211	0	"John Stewart Company / Hunters Point East West, LP"	Bayview Hunters Point	10	"(37.7288666, -122.3810501)"	37.7288666	 -122.3810501
2013-030	100 Appleton Street - RAD Cluster 5 (Holly Courts)	"100 Appleton Avenue, San Francisco, CA 94110"	118	117	0	Bridge Housing	Bernal Heights	9	"(37.7377129, -122.422226)"	37.7377129	 -122.422226)
2013-031	Robert B. Pitts (RAD)	"1150 Scott Street, San Francisco, CA 94115"	201	199	0	Bridge Housing	Western Addition	5	"(37.7803574, -122.4369812)"	37.7803574	 -122.4369812
2013-032	25 Sanchez- RAD Cluster 6	"25 Sanchez Street, San Francisco, CA 94114"	90	89	0	Bridge Housing & MEDA Housing	Castro/Upper Market	8	"(37.7689285, -122.4309769)"	37.7689285	 -122.4309769
2013-033	990 Pacific Avenue	"990 Pacific Avenue, San Francisco, CA 94133"	92	91	0	Chinatown Community Development Center	Chinatown	3	"(37.7966003, -122.4113846)"	37.7966003	 -122.4113846
2013-054	Canon Kip Community House	"705 Natoma St, San Francisco, CA 94103"	104	103	0	Episcopal Community Services	South of Market	6	"(37.7763252, -122.4123077)"	37.7763252	 -122.4123077
2013-061	534-536 Natoma St	"534-536 Natoma St, San Francisco, CA 94103"	5	4	0	San Francisco Community Land Trust	South of Market	6	"(37.7796364, -122.4086456)"	37.7796364	 -122.4086456
2014-007	O'Farrell Towers	"477 O'Farrell St, San Francisco, CA 94102"	101	100	0	Tenderloin Neighborhood Development Corporation	Tenderloin	6	"(37.7855988, -122.4124222)"	37.7855988	 -122.4124222
2014-026	151 Duboce	"149-151 Duboce Ave, San Francisco, CA 94103"	4	4	0	San Francisco Community Land Trust	Mission	8	"(37.7695694, -122.4234619)"	37.7695694	 -122.4234619
2015-006	308 Turk Street	"308 Turk St, San Francisco, CA 94102"	20	20	0	San Francisco Community Land Trust	Tenderloin	6	"(37.7830353, -122.4144363)"	37.7830353	 -122.4144363
2015-012	Pigeon Palace	"2840-2848 Folsom St, San Francisco, CA 94110"	6	6	0	San Francisco Community Land Trust	Mission	9	"(37.751812, -122.4143677)"	"37.751812,"	-122.4143677)
2015-013	1684-1688 Grove Street	"1684 Grove St, San Francisco, CA 94117"	3	3	0	San Francisco Community Land Trust	Lone Mountain/USF	5	"(37.7753487, -122.4443665)"	37.7753487	 -122.4443665
2015-014	380 San Jose Avenue	"380 San Jose Ave, San Francisco, CA 94110"	4	4	0	Mission Economic Development Agency	Mission	8	"(37.7491913, -122.4216385)"	37.7491913	 -122.4216385
2015-015	1353 -1357 Folsom Street	"1353 Folsom St, San Francisco, CA 94103"	3	3	0	San Francisco Community Land Trust	South of Market	6	"(37.7729912, -122.4121552)"	37.7729912	 -122.4121552
2015-016	70-72c Belcher Street	"70 Belcher St, San Francisco, CA 94114"	5	5	0	San Francisco Community Land Trust	Castro/Upper Market	8	"(37.7681046, -122.4304428)"	37.7681046	 -122.4304428
2015-040	642-646 Guerrero Street	"642-646 Guerrero St, San Francisco, CA 94110"	4	4	0	Mission Economic Development Agency	Mission	8	"(37.7607956, -122.4240341)"	37.7607956	 -122.4240341
2015-051	568-570 Natoma Street	"568 -570 Natoma St, San Francisco, CA 94103"	5	5	0	San Francisco Community Land Trust	South of Market	6	"(37.7790642, -122.4093857)"	37.7790642	 -122.4093857
2015-052	Dorothy Day Community	"54 McAllister St, San Francisco, CA 94102"	100	99	0	Mercy Housing California	Tenderloin	6	"(37.7812881, -122.4131699)"	37.7812881	 -122.4131699
2016-001	111 Jones	"111 Jones St, San Francisco, CA 94102"	108	108	0	Mercy Housing California	Tenderloin	6	"(37.7823067, -122.4126282)"	37.7823067	 -122.4126282
2016-025	1500 Cortland	"1500 Cortland Ave, San Francisco, CA 94110"	4	4	0	Mission Economic Development Agency	Bernal Heights	9	"(37.7395821, -122.409317)"	37.7395821	 -122.409317)
2016-030	462 Green Street	"462 Green St, San Francisco, CA 94133"	6	6	0	Chinatown Community Development Center	North Beach	3	"(37.7999649, -122.4068527)"	37.7999649	 -122.4068527
2016-032	Garden Court Apartments	"1637 15th St, San Francisco, CA 94103"	16	16	0	Mission Housing Development Corporation	Mission	9	"(37.7663956, -122.4204483)"	37.7663956	 -122.4204483
2016-037	Howard Street Apartments	"1601 Howard St, San Francisco, CA 94103"	12	12	0	Tenderloin Neighborhood Development Corporation	Mission	6	"(37.7713928, -122.4167862)"	37.7713928	 -122.4167862
2016-038	Washburn Hotel	"38-42 Washburn St, San Francisco, CA 94103"	22	22	0	Conard House	South of Market	6	"(37.7752838, -122.4145889)"	37.7752838	 -122.4145889
2016-041	Haight Street Apartments	"398 Haight St, San Francisco, CA 94102"	12	7	0	Tenderloin Neighborhood Development Corporation	Hayes Valley	5	"(37.7725334, -122.4286194)"	37.7725334	 -122.4286194
2016-042	Dalt Hotel	"34 Turk St, San Francisco, CA 94102"	178	178	0	Tenderloin Neighborhood Development Corporation	Tenderloin	6	"(37.7836113, -122.4098892)"	37.7836113	 -122.4098892
2016-066	3840 Folsom Street	"3840 Folsom St, San Francisco, CA 94110"	4	4	0	Mission Economic Development Agency	Bernal Heights	9	"(37.7384262, -122.4135361)"	37.7384262	 -122.4135361
2016-075	3329-3333 20th Street	"3329-3333 20th Street, San Francisco, CA 94110"	10	10	0	Mission Economic Development Agency	Mission	9	"(37.7586365, -122.41539)"	37.7586365	 -122.41539)
											
											
											
											
											
											
											
											
											
											
											
											
											
											
											
											
											
											
											
											
											
											
											
											
											
											
											
											
											
											
											
											
											
											
											
											
